NAME,STREET,POST_CODE,CITY,LONGITUDE,LATITUDE,HUMIDITY_AVG,PRESSURE_AVG,TEMPERATURE_AVG,PM10_AVG,PM25_AVG,TIMESTAMP
SZKOŁA PODSTAWOWA IM. MARIANA FALSKIEGO W KRASZEWICACH, UL. SZKOLNA, 63-522, KRASZEWICE,18.22403,51.51563, 0.1, 1004.9, 0.0,0.0,0.0, 2026-07-23 16:05:53
SZKOŁA PODSTAWOWA WE WRZĄSOWICACH, UL. SZKOLNA, 32-040, WRZĄSOWICE,19.94282,49.96103, 65.73333333333333, 973.5833333333334, 19.866666666666667,2.883333333333333,2.5666666666666678, 2026-07-23 16:05:53
ZESPÓŁ SZKÓŁ NR 1 W PSZCZYNIE, UL. KAZIMIERZA WIELKIEGO, 43-200, PSZCZYNA,18.9457058,49.965883, 95.7, 995.6999999999999, 17.933333333333334,0.266666666666666,0.14, 2026-07-23 16:05:53
ZESPÓŁ SZKÓŁ IM. POWSTAŃCÓW WIELKOPOLSKICH W JANKOWIE PRZYGODZKIM, SZKOLNA, 63-421, JANKÓW PRZYGODZKI,17.7889069,51.596172, 99.90000000000002, 992.4, 16.4,21.3,11.15, 2026-07-23 16:05:53
SZKOŁA PODSTAWOWA NR 7 IM. ŻOŁNIERZY WRZEŚNIA W ĆWIKLICACH, UL. MĘCZENNIKÓW OŚWIĘCIMSKICH, 43-229, ĆWIKLICE,18.989839,49.971937, 89.33333333333333, 982.2333333333332, 19.366666666666667,1.333333333333333,0.7000000000000001, 2026-07-23 16:05:53
SZKOŁA PODSTAWOWA NR 12 W STUDZIONCE, UL. JORDANA, 43-245, STUDZIONKA,18.774985,49.9603559, 86.5, 988.6999999999999, 15.633333333333333,1.033333333333333,0.593333333333333, 2026-07-23 16:05:53
ZESPÓŁ SZKOLNO-PRZEDSZKOLNY W PIASKU, SZKOLNA, 43-211, PIASEK,18.94634,50.00955, 84.2, 990.4, 18.233333333333334,0.866666666666666,0.44, 2026-07-23 16:05:53
ZESPÓŁ SZKOLNO-PRZEDSZKOLNY W ŁĄCE, FITELBERGA, 43-241, ŁĄKA,18.906757,49.9582444, 99.90000000000002, 987.3666666666667, 15.933333333333332,1.466666666666666,0.8366666666666661, 2026-07-23 16:05:53
SZKOŁA PODSTAWOWA NR 3 W LUBONIU, ARMII POZNAŃ, 62-030, LUBOŃ,16.8968,52.3481, 98.60000000000001, 995.2666666666668, 18.099999999999998,0.866666666666666,0.46, 2026-07-23 16:05:53
ZESPÓŁ SZKÓŁ PONADGIMNAZJALNYCH CENTRUM KSZTAŁCENIA USTAWICZNEGO W PRZYGODZICACH, PTR, 63-421, PRZYGODZICE,17.822685,51.59023, 76.5, 1003.8000000000001, 17.633333333333336,1.4333333333333331,0.7866666666666661, 2026-07-23 16:05:53
LICEUM OGÓLNOKSZTAŁCĄCE IM. WŁADYSŁAWA JAGIEŁŁY W ODOLANOWIE, KROTOSZYŃSKA, 63-430, ODOLANÓW,17.66024,51.58063, 86.56666666666666, 995.3666666666667, 17.46666666666667,4.233333333333333,2.23, 2026-07-23 16:05:53
ZESPÓŁ SZKÓŁ W PIOTROWIE, , 62-814, PIOTRÓW,18.05485,51.8157, 99.90000000000002, 995.9666666666667, 15.133333333333333,0.833333333333333,0.48, 2026-07-23 16:05:53
SZKOŁA PODSTAWOWA W CZARNYMLESIE, , 63-421, CZARNYLAS,17.762604,51.508366, 76.03333333333333, 990.8000000000001, 17.433333333333334,0.066666666666666,0.033333333333333, 2026-07-23 16:05:53
SZKOŁA PODSTAWOWA NR 2 IM. AUGUSTA HR. CIESZKOWSKIEGO W LUBONIU, ŻABIKOWSKA, 62-030, LUBOŃ,16.878431,52.346672, 96.8, 1003.7333333333332, 18.233333333333334,0.8,0.463333333333333, 2026-07-23 16:05:53
SZKOŁA PODSTAWOWA IM. POWSTAŃCÓW WIELKOPOLSKICH W DORUCHOWIE, KALISKA, 63-505, DORUCHÓW,18.0786,51.4189, 73.89999999999999, 1014.0666666666666, 18.599999999999998,0.066666666666666,0.0, 2026-07-23 16:05:53
SZKOŁA PODSTAWOWA IM. MIKOŁAJA KOPERNIKA W BUKOWCU, SZKOLNA, 95-006, BUKOWIEC,19.6757,51.6918, 99.66666666666667, 979.9, 18.366666666666667,1.9,1.046666666666666, 2026-07-23 16:05:53
SZKOŁA PODSTAWOWA IM. MARII KONOPNICKIEJ W KOTLINIE, MARII KONOPNICKIEJ, 63-220, KOTLIN,17.645437,51.91866, 99.90000000000002, 993.6666666666666, 16.7,0.0,0.0, 2026-07-23 16:05:53
SZKOŁA PODSTAWOWA NR 2 W OTMUCHOWIE, KALINOWA, 48-385, OTMUCHÓW,17.213,50.46535, 80.36666666666666, 991.3666666666667, 20.233333333333334,2.8,1.39, 2026-07-23 16:05:53
SZKOŁA PODSTAWOWA IM. BOHATERÓW POWSTAŃ ŚLĄSKICH W KAŁKOWIE, , 48-364, KAŁKÓW,17.185241,50.4042, 50.26666666666667, 987.1999999999999, 20.900000000000002,0.7333333333333331,0.456666666666666, 2026-07-23 16:05:53
SZKOŁA PODSTAWOWA W MACIEJOWICACH, , 48-385, MACIEJOWICE,17.13497,50.4998, 58.56666666666666, 977.5333333333333, 19.966666666666665,0.166666666666666,0.099999999999999, 2026-07-23 16:05:53
TEST SZKOŁA, ul Testowa, 00-000, TESTCITY,-157.52969778504766,1.8586845937815497, 84.06666666666666, 994.4666666666667, 18.833333333333332,0.3,0.14, 2026-07-23 16:05:53
ZESPÓŁ EDUKACYJNY W KONOTOPIE, PL. POWSTAŃCÓW WIELKOPOLSKICH, 67-416, KONOTOP,15.9031,51.93023, 66.60000000000001, 1004.4333333333334, 20.233333333333334,3.033333333333333,1.729999999999999, 2026-07-23 16:05:53
PRZEDSZKOLE NR 6 W BOCHNI, MUROWIANKA, 32-700, BOCHNIA,20.4415,49.96533, 54.56666666666666, 998.5, 21.633333333333336,2.4,1.369999999999999, 2026-07-23 16:05:53
PUBLICZNA SZKOŁA PODSTAWOWA W SZYMISZOWIE, SZKOLNA, 47-161, SZYMISZÓW,18.21983,50.53656, 73.66666666666667, 988.9666666666667, 21.366666666666664,0.966666666666666,0.52, 2026-07-23 16:05:53
PUBLICZNA SZKOŁA PODSTAWOWA W ROZMIERCE, SZKOLNA, 47-171, ROZMIERKA,18.26905,50.56072, 1.0, 1016.5666666666666, 20.566666666666666,0.033333333333333,0.02, 2026-07-23 16:05:53
SZKOŁA PODSTAWOWA IM. ORŁA BIAŁEGO W KUROWICACH FILIA W WOLI RAKOWEJ, SZKOLNA, 95-006, WOLA RAKOWA,19.61157,51.67447, 92.46666666666665, 986.0, 19.566666666666666,0.066666666666666,0.036666666666666, 2026-07-23 16:05:53
SZKOŁA PODSTAWOWA NR 8 IM. JÓZEFA WESZKI W RUDOŁTOWICACH, KRZYWOŃ, 43-220, RUDOŁTOWICE,19.00171,49.95711, 99.86666666666667, 992.0666666666666, 19.833333333333332,0.2,0.12, 2026-07-23 16:05:53
ZESPÓŁ SZKOLNO-PRZEDSZKOLNY W WIŚLE WIELKIEJ, HODOWCÓW, 43-243, WISŁA WIELKA,18.8532,49.95291, 99.9, 985.925, 16.775000000000002,1.15,0.62, 2026-07-23 16:05:53
SZKOŁA PODSTAWOWA IM. MARKA PRAWEGO W JEMIELNICY, SZKOLNA, 47-133, JEMIELNICA,18.380122,50.548993, 75.10000000000001, 990.6666666666666, 19.333333333333332,1.833333333333333,1.003333333333333, 2026-07-23 16:05:53
SZKOŁA PODSTAWOWA NR 2 IM. ŚW. JADWIGI ŚLĄSKIEJ W PSZCZYNIE, KATOWICKA, 43-200, PSZCZYNA,18.947994,49.992568, 89.03333333333335, 989.6, 16.900000000000002,0.166666666666666,0.096666666666666, 2026-07-23 16:05:53
ZESPÓŁ SZKÓŁ SPECJALNYCH W OSTROWCU ŚWIĘTOKRZYSKIM, IŁZECKA, 27-400, OSTROWIEC ŚWIĘTOKRZYSKI,21.386931,50.942931, 99.9, 1001.8, 15.075,2.475,1.3625, 2026-07-23 16:05:53
ZESPÓŁ SZKOLNO-PRZEDSZKOLNY W JANKOWICACH, BAZIOWA, 43-215, JANKOWICE,18.989423,50.002529, 29.0, 936.9, 23.3,28.0,17.0, 2026-07-23 16:05:53
SZKOŁA PODSTAWOWA NR 4 IM. JÓZEFA PUKOWCA W PSZCZYNIE, ZYGMUNTA KRASIŃSKIEGO, 43-200, PSZCZYNA,18.961125,49.971182, 96.93333333333334, 984.6333333333332, 18.266666666666666,9.333333333333334,5.836666666666667, 2026-07-23 16:05:53
ZESPÓŁ SZKÓŁ W OTMUCHOWIE, KRAKOWSKA, 48-385, OTMUCHÓW,17.167634,50.4705, 48.86666666666667, 983.6333333333333, 21.366666666666664,0.533333333333333,0.333333333333333, 2026-07-23 16:05:53
SZKOŁA PODSTAWOWA NR 60IM. IGNACEGO ŁUKASZEWICZA W CZECHOWICACH-DZIEDZICACH, UL. ŁUKASIEWICZA, 43-502, CZECHWICE-DZIEDZICE,19.016493,49.899404, 84.60000000000001, 975.3333333333334, 18.333333333333332,1.133333333333333,0.65, 2026-07-23 16:05:53
SZKOŁA PODSTAWOWA NR 4 IM. GUSTAWA MORCINKA W SŁUPSKU, UL. LESZCZYŃSKIEGO, 76-200, SŁUPSK,17.005017,54.475286, 67.33333333333333, 1005.4666666666667, 18.933333333333334,1.5,0.746666666666666, 2026-07-23 16:05:53
SZKOŁA PODSTAWOWA W KLESZCZOWIE, UL. SZKOLNA, 44-164, KLESZCZÓW,18.52751,50.344057, 61.9, 992.9, 21.2,0.0,0.0, 2026-07-23 16:05:53
SZKOŁA PODSTAWOWA NR 5 IM. GRYFITÓW W SŁUPSKU, UL. HUBALCZYKÓW, 76-200, SŁUPSK,17.062723,54.455744, 74.60000000000001, 1003.8000000000001, 17.7,1.099999999999999,0.583333333333333, 2026-07-23 16:05:53
ZESPÓŁ SZKOLNO-PRZEDSZKOLNY W POTĘPIE, UL. TARNOGÓRSKA, 42-693, POTĘPA,18.662519,50.565309, 99.90000000000002, 1006.4666666666667, 19.3,0.966666666666666,0.5133333333333331, 2026-07-23 16:05:53
SZKOŁA PODSTAWOWA NR 3 IM. JANA PAWŁA II W PSZCZYNIE, UL. STAROMIEJSKA, 43-200, PSZCZYNA,18.92452,49.98849, 62.879999999999995, 981.8799999999999, 19.880000000000003,1.819999999999999,1.359999999999999, 2026-07-23 16:05:53
SZKOŁA PODSTAWOWA IM. MIKOŁAJA REJA W GORZYCZKACH, UL. WIEJSKA, 44-350, GORZYCZKI,18.399689,49.944774, 93.33333333333333, 982.3333333333334, 19.033333333333335,0.0,0.0, 2026-07-23 16:05:53
SZKOŁA PODSTAWOWA NR 6 IM. LUDWIKA WARYŃSKIEGO W SŁUPSKU, UL. STARZYŃSKIEGO, 76-200, SŁUPSK,17.023811,54.46598, 99.90000000000002, 1008.8666666666667, 18.5,0.0,0.0, 2026-07-23 16:05:53
SZKOŁA PODSTAWOWA IM. JANA BRZECHWY W KOBIÓRZE, UL. TUWIMA, 43-210, KOBIÓR,18.930274,50.060752, 68.26666666666667, 986.1333333333333, 18.366666666666667,2.199999999999999,1.266666666666666, 2026-07-23 16:05:53
SZKOŁA PODSTAWOWA W PONISZOWICACH, UL. GLIWICKA, 44-172, PONISZOWICE,18.458674,50.40922, 57.0, 982.0, 24.633333333333336,0.0,0.0, 2026-07-23 16:05:53
SZKOŁA PODSTAWOWA IM. ORŁA BIAŁEGO W SOKOŁOWICACH, SOKOŁOWICE, 56-400, SOKOŁOWICE,17.4469,51.245, 43.166666666666664, 994.2666666666668, 22.433333333333334,1.099999999999999,0.6000000000000001, 2026-07-23 16:05:53
SZKOŁA PODSTAWOWA IM. UNICEF W LIGOCIE MAŁEJ, LIGOTA MAŁA, 56-400, LIGOTA MAŁA,17.365476,51.142467, 56.36666666666667, 966.1, 19.433333333333334,2.233333333333333,1.16, 2026-07-23 16:05:53
SZKOŁA PODSTAWOWA GMINY OLEŚNICA W OLEŚNICY, WILEŃSKA, 56-400, OLEŚNICA,17.41034,51.2095, 99.90000000000002, 1006.8000000000001, 22.333333333333332,1.066666666666666,0.5700000000000001, 2026-07-23 16:05:53
SZKOŁA PODSTAWOWA NR 19 W BRZEŹCACH, POKOJU, 43-200, BRZEŹCE,18.832539,49.984943, 94.23333333333335, 984.6999999999999, 14.666666666666666,0.366666666666666,0.223333333333333, 2026-07-23 16:05:53
ZESPÓŁ SZKOLNO-PRZEDSZKOLNY W RADOSTOWIE ŚREDNIM, RADOSTÓW ŚREDNI, 59-800, RADOSTÓW ŚREDNI,15.36293,51.12153, 27.5, 983.0, 28.3,0.5,0.28, 2026-07-23 16:05:53
ZESPÓŁ SZKOLNO-PRZEDSZKOLNY W KOŚCIELNIKU, KOŚCIELNIK, 59-800, KOŚCIELNIK,15.29682,51.08393, 61.9, 995.9, 17.5,0.3,0.15, 2026-07-23 16:05:53
SZKOŁA PODSTAWOWA IM. POLSKICH ODKRYWCÓW I PODRÓŻNIKÓW W KOBIERZYCACH, PARKOWA, 55-040, KOBIERZYCE,16.933169,50.971851, 74.53333333333335, 989.3333333333334, 19.3,4.2,2.44, 2026-07-23 16:05:53
SZKOŁA PODSTAWOWA IM. UNICEF W BIELANACH WROCŁAWSKICH, AKACJOWA, 55-040, BIELANY WROCŁAWSKIE,16.971022,51.03812, 80.39999999999999, 997.4333333333334, 16.333333333333332,2.6999999999999997,1.42, 2026-07-23 16:05:53
SZKOŁA PODSTAWOWA IM. JANUSZA KORCZAKA W WYSOKIEJ, CHABROWA, 52-200, WYSOKA,17.007729,51.047504, 92.075, 993.075, 18.1,1.475,0.7275, 2026-07-23 16:05:53
SZKOŁA PODSTAWOWA IM. TADEUSZA MAZOWIECKIEGO W TYŃCU MAŁYM, SZKOLNA, 55-040, TYNIEC MAŁY,16.909195,51.0216, 67.8, 1019.16, 2.5,39.96,21.93, 2026-07-23 16:05:53
SZKOŁA PODSTAWOWA IM. ROMUALDA TRAUGUTTA W PUSTKOWIE ŻURAWSKIM, KOLEJOWA, 55-040, PUSTKÓW ŻURAWSKI,16.859465,50.958878, 99.90000000000002, 992.2666666666668, 17.466666666666665,1.633333333333333,0.986666666666666, 2026-07-23 16:05:53
SZKOŁA PODSTAWOWA NR 1 IM. MARII KONOPNICKIEJ W ZESPOLE SZKÓŁ OGÓLNOKSZTAŁCĄCYCH NR 1 IM. MARII KONOPNICKIEJ W PRUSZCZU GDAŃSKIM, NIEMCEWICZA, 83-000, PRUSZCZ GDAŃSKI,18.650575,54.261512, 71.39999999999999, 1015.9, 19.5,1.066666666666666,0.603333333333333, 2026-07-23 16:05:53
SZKOŁA PODSTAWOWA NR 2 IM. MIKOŁAJA KOPERNIKA W PRUSZCZU GDAŃSKIM, TYSIĄCLECIA, 83-000, PRUSZCZ GDAŃSKI,18.628278,54.260787, 67.39999999999999, 1008.0333333333333, 19.400000000000002,0.066666666666666,0.033333333333333, 2026-07-23 16:05:53
SZKOŁA PODSTAWOWA NR 3 IM. JANA MATEJKI W PRUSZCZU GDAŃSKIM, MATEJKI, 83-000, PRUSZCZ GDAŃSKI,18.636981,54.255547, 63.86666666666667, 1010.8000000000001, 23.233333333333334,0.8,0.403333333333333, 2026-07-23 16:05:53
SZKOŁA PODSTAWOWA NR 4 IM. IGNACEGO JANA PADEREWSKIEGO W PRUSZCZU GDAŃSKIM, KASPROWICZA, 83-000, PRUSZCZ GDAŃSKI,18.670231,54.263405, 62.43333333333334, 1010.0, 21.333333333333332,0.0,0.0, 2026-07-23 16:05:53
SZKOŁA PODSTAWOWA NR 13 W WIŚLE MAŁEJ, SOKOLA, 43-243, WISŁA MAŁA,18.793987,49.93368, 99.90000000000002, 990.4333333333334, 15.933333333333335,0.0,0.0, 2026-07-23 16:05:53
ZESPÓŁ SZKOLNO-PRZEDSZKOLNY W STUDZIENICACH, ŚW. JANA PAWŁA II 74, 43-215, STUDZIENICE,18.983576,50.016514, 92.23333333333333, 994.1999999999999, 20.133333333333336,0.1,0.053333333333333, 2026-07-23 16:05:53
SZKOŁA PODSTAWOWA IM. JANUSZA KORCZAKA W SUSZCU, SZKOLNA, 43-267, SUSZEC,18.79149,50.03719, 99.90000000000002, 998.6999999999999, 20.166666666666668,0.0,0.0, 2026-07-23 16:05:53
SZKOŁA PODSTAWOWA NR 11 W PORĘBIE, SZKOLNA, 43-200, PORĘBA,18.876488,49.984417, 93.8, 999.0666666666666, 18.433333333333334,0.0,0.0, 2026-07-23 16:05:53
SZKOŁA PODSTAWOWA IM. MIKOŁAJA KOPERNIKA W WYSOCKU MAŁYM, KOŚCIELNA, 63-421, WYSOCKO MAŁE,17.84109,51.61033, 99.9, 989.85, 17.35,1.5,0.845, 2026-07-23 16:05:53
SZKOŁA PODSTAWOWA NR 3 IM. JULIANA TUWIMA W NOWEJ SOLI, BOTANICZNA, 67-100, NOWA SÓL,15.71186,51.82115, 88.43333333333334, 1006.1999999999999, 20.46666666666667,0.233333333333333,0.136666666666666, 2026-07-23 16:05:53
ZESPÓŁ SZKÓŁ W JANKOWIE PIERWSZYM, JANKÓW PIERWSZY, 62-814, JANKÓW PIERWSZY,17.987951,51.902107, 99.90000000000002, 992.6333333333333, 14.6,1.3,0.84, 2026-07-23 16:05:53
ZESPÓŁ SZKOLNO-PRZEDSZKOLNY W MESZNIE, MESZNO, 48-385, MESZNO,17.15378,50.43684, 99.2, 981.3333333333334, 20.2,0.866666666666666,0.443333333333333, 2026-07-23 16:05:53
SZKOŁA PODSTAWOWA IM. 16. PUŁKU UŁANÓW WIELKOPOLSKICH W GRUPIE, SZKOLNA, 86-134, GRUPA,18.643229,53.506348, 58.300000000000004, 1004.6, 22.2,1.2,0.673333333333333, 2026-07-23 16:05:53
SZKOŁA PODSTAWOWA IM. ORŁA BIAŁEGO W KUROWICACH, SZKOLNA, 95-006, KUROWICE,19.6897942,51.6648927, 65.89999999999999, 985.3000000000001, 18.966666666666665,2.9,1.836666666666666, 2026-07-23 16:05:53
SZKOŁA PODSTAWOWA IM. POWSTAŃCÓW WIELKOPOLSKICH W BUDZYNIU, ROGOZIŃSKA, 64-840, BUDZYŃ,16.983885,52.8847, 92.36666666666667, 995.5333333333333, 16.833333333333332,0.833333333333333,0.44, 2026-07-23 16:05:53
SZKOŁA PODSTAWOWA W SWORNEGACIACH, SZKOLNA, 89-608, SWORNEGACIE,17.503073,53.86227, 76.76666666666667, 996.9333333333334, 19.099999999999998,0.066666666666666,0.036666666666666, 2026-07-23 16:05:53
SZKOŁA PODSTAWOWA IM. ORŁA BIAŁEGO W RASZÓWCE, 1 MAJA, 59-307, RASZÓWKA,16.18346,51.30514, 99.90000000000002, 997.2333333333332, 19.033333333333335,1.4,0.7200000000000001, 2026-07-23 16:05:53
SZKOŁA PODSTAWOWA IM. TADEUSZA KOŚCIUSZKI W MUNINIE, 3-GO MAJA, 37-514, MUNINA,22.725977,49.997936, 56.5, 996.2999999999998, 6.8,68.4,42.61, 2026-07-23 16:05:53
SZKOŁA PODSTAWOWA IM. ALEKSANDRA FREDRY W SUROCHOWIE, SUROCHÓW, 37-500, SUROCHÓW,22.7635,50.02385, 46.26666666666667, 984.5, 24.3,5.666666666666667,3.193333333333333, 2026-07-23 16:05:53
SZKOŁA PODSTAWOWA IM. LOTNIKÓW ALIANCKICH W IŁOWEJ, PIASKOWA, 68-120, IŁOWA,15.20461,51.50227, 49.5, 993.7000000000002, 16.7,56.0,31.12, 2026-07-23 16:05:53
ZESPÓŁ SZKOLNO-PRZEDSZKOLNY W BOŻEJOWICACH, BOŻEJOWICE, 59-700, BOŻEJOWICE,15.541525,51.244331, 98.93333333333334, 989.8000000000001, 17.166666666666668,6.766666666666668,3.816666666666666, 2026-07-23 16:05:53
ZESPÓŁ SZKOLNO-PRZEDSZKOLNY W BRZEŹNIKU, BRZEŹNIK, 59-700, BRZEŹNIK,15.467881,51.243537, 36.63333333333333, 994.6, 19.099999999999998,1.666666666666666,0.9133333333333332, 2026-07-23 16:05:53
SZKOŁA PODSTAWOWA W DĄBROWIE BOLESŁAWIECKIEJ, DĄBROWA BOLESŁAWIECKA, 59-700, DĄBROWA BOLESŁAWIECKA,15.57337,51.325929, 79.875, 990.275, 21.475,0.5750000000000001,0.4175, 2026-07-23 16:05:53
ZESPÓŁ SZKOLNO-PRZEDSZKOLNY W KRAŚNIKU DOLNYM, KRAŚNIK DOLNY, 59-700, KRAŚNIK DOLNY,15.607869,51.3078, 99.9, 982.7, 2.6,70.2,47.21, 2026-07-23 16:05:53
ZESPÓŁ SZKOLNO-PRZEDSZKOLNY W OCICACH, OCICE, 59-730, OCICE,15.492642,51.201123, 99.90000000000002, 996.4666666666667, 17.066666666666666,3.9,2.303333333333333, 2026-07-23 16:05:53
ZESPÓŁ SZKOLNO-PRZEDSZKOLNY W TRZEBIENIU, LEŚNA, 59-700, TRZEBIEŃ,15.599295,51.390285, 54.4, 980.4, 20.966666666666665,2.066666666666666,1.28, 2026-07-23 16:05:53
ZESPÓŁ SZKOLNO-PRZEDSZKOLNY W ŻELISZOWIE, ŻELISZÓW, 59-700, ŻELISZÓW,15.636493,51.188462, 99.9, 991.525, 17.25,4.0,2.3, 2026-07-23 16:05:53
SZKOŁA PODSTAWOWA IM. MARII SKŁODOWSKIEJ-CURIE W KAWĘCZYNIE, KAWĘCZYN, 62-704, KAWĘCZYN,18.53126,51.90873, 91.88, 1014.65, 8.93,28.28,16.42, 2026-07-23 16:05:53
PUBLICZNA SZKOŁA PODSTAWOWA IM. MARII KONOPNICKIEJ W JORDANOWIE ŚLĄSKIM, WROCŁAWSKA, 55-065, JORDANÓW ŚLĄSKI,16.8656,50.8654, 70.46666666666667, 995.6, 18.8,2.3666666666666663,1.49, 2026-07-23 16:05:53
SZKOŁA PODSTAWOWA IM. JANA PAWŁA II W RUDNEJ, PIASKOWA, 59-305, RUDNA,16.26114,51.51127, 99.72500000000001, 998.075, 18.425,5.5,3.032499999999999, 2026-07-23 16:05:53
SZKOŁA PODSTAWOWA IM. BOHATERÓW WESTERPLATTE W CHOBIENI, SZKOLNA, 59-305, CHOBIENIA,16.44566,51.54124, 61.825, 999.05, 20.1,4.125,2.3025, 2026-07-23 16:05:53
SZKOŁA PODSTAWOWA NR 3 IM. WŁADYSŁAWA BRONIEWSKIEGO W ŚWIEBODZICACH, ŚWIDNICKA, 58-160, ŚWIEBODZICE,16.322191,50.859905, 85.72500000000001, 981.875, 18.625,0.8250000000000001,0.47, 2026-07-23 16:05:53
PUBLICZNA SZKOŁA PODSTAWOWA NR 5 IM. WŁADYSŁAWA BRONIEWSKIEGO W NOWEJ SOLI, WALKI MŁODYCH, 67-100, NOWA SÓL,15.72476,51.78292, 99.9, 1004.4, 18.075,3.4,1.8375, 2026-07-23 16:05:53
ZESPÓŁ EDUKACYJNY W KOLSKU, PIASTOWSKA, 67-415, KOLSKO,15.961961,51.960693, 88.33999999999999, 1020.57, 9.94,37.83,22.350000000000005, 2026-07-23 16:05:53
SZKOŁA PODSTAWOWA NR 3 IM. MARII KONOPNICKIEJ W KOLE, TORUŃSKA, 62-600, KOŁO,18.63092,52.201656, 99.90000000000002, 1002.3333333333334, 16.3,5.066666666666666,2.8, 2026-07-23 16:05:53
SZKOŁA PODSTAWOWA IM. JANA PAWŁA II W MIKORZYNIE, MIKORZYN, 63-600, MIKORZYN,18.026148,51.36473, 99.90000000000002, 986.7666666666668, 16.833333333333332,0.766666666666666,0.433333333333333, 2026-07-23 16:05:53
SZKOŁA PODSTAWOWA NR 1 IM. BOHATERÓW WESTERPLATTE W KĘPNIE, HENRYKA SIENKIEWICZA, 63-600, KĘPNO,17.987194,51.27619, 79.225, 998.6500000000001, 22.35,1.0,0.51, 2026-07-23 16:05:53
SZKOŁA PODSTAWOWA IM. JANA PAWŁA II W LIPNICY WIELKIEJ, LIPNICA WIELKA, 33-323, LIPNICA WIELKA,20.86532,49.70755, 94.0, 985.0, 16.9,28.3,15.62, 2026-07-23 16:05:53
SZKOŁA PODSTAWOWA IM. PREZYDENTA GABRIELA NARUTOWICZA W CZĄSTKOWIE MAZOWIECKIM, CZĄSTKÓW MAZOWIECKI, 05-152, CZĄSTKÓW MAZOWIECKI,20.746943,52.39131, 70.8, 998.6666666666666, 20.599999999999998,18.133333333333333,10.466666666666669, 2026-07-23 16:05:53
SZKOŁA PODSTAWOWA IM. PIERREA DE COUBERTINA W BUDACH SIENNICKICH, BUDY SIENNICKIE, 05-190, BUDY SIENNICKIE,20.787657,52.544962, 99.90000000000002, 989.0333333333333, 20.066666666666666,4.266666666666667,2.576666666666666, 2026-07-23 16:05:53
SZKOŁA PODSTAWOWA IM. JANA BRZECHWY W SZKLARACH GÓRNYCH, SZKLARY GÓRNE, 59-335, SZKLARY GÓRNE,16.08945,51.44225, 99.90000000000002, 999.6333333333333, 17.433333333333334,3.4,1.8066666666666664, 2026-07-23 16:05:53
SAMORZĄDOWA SZKOŁA PODSTAWOWA W GÓRNYCH GRĄDACH, GÓRNE GRĄDY, 62-310, GÓRNE GRĄDY,17.74012,52.11447, 99.90000000000002, 1010.2800000000001, 20.5,2.799999999999999,1.5599999999999992, 2026-07-23 16:05:53
SZKOŁA PODSTAWOWA IM. KRZYSZTOFA KAMILA BACZYŃSKIEGO W CIĄŻENIU, WOLNOŚCI, 62-404, CIĄŻEŃ,17.816093,52.21152, 99.90000000000002, 1000.2000000000002, 23.8,8.3,4.28, 2026-07-23 16:05:53
SZKOŁA PODSTAWOWA NR 1 IM. STRAJKU DZIECI KOŹMIŃSKICH 1906/1907 W KOŹMINIE WIELKOPOLSKIM, GLINKI, 63-720, KOŹMIN WIELKOPOLSKI,17.45651,51.82566, 88.5, 1007.1, 13.300000000000002,19.5,11.76, 2026-07-23 16:05:53
SZKOŁA PODSTAWOWA SPORTOWA NR 6 W EŁKU, SUWALSKA, 19-300, EŁK,22.365547,53.82862, 57.86666666666667, 990.4333333333334, 22.633333333333336,1.233333333333333,0.7400000000000001, 2026-07-23 16:05:53
SZKOŁA PODSTAWOWA NR 6 IM. JANA PAWŁA II W STAROGARDZIE GDAŃSKIM, BP. DOMINIKA, 83-250, STAROGARD GDAŃSKI,18.491356,53.98333, 74.93333333333332, 998.9333333333334, 21.0,0.533333333333333,0.303333333333333, 2026-07-23 16:05:53
PUBLICZNA SZKOLA PODSTAWOWA IM. BOHATEROW OŚWIĘCIMSKICH W RUDZICZCE, WOSZCZYCKA, 43-267, RUDZICZKA (SUSZEC),18.7549,50.03935, 67.4, 1001.1999999999999, 21.733333333333334,2.6,1.563333333333333, 2026-07-23 16:05:53
ZESPÓŁ SZKÓŁ TECHNICZNYCH W KOLE, KOLEJOWA, 62-600, KOŁO,18.62956,52.2088, 78.53333333333333, 994.6999999999999, 19.3,0.166666666666666,0.096666666666666, 2026-07-23 16:05:53
PUBLICZNA SZKOŁA PODSTAWOWA NR 2 IM. KAZIMIERZA PUŁASKIEGO W WARCE, POLNA, 05-660, WARKA,21.188357,51.78638, 63.06666666666666, 992.5, 20.066666666666666,1.466666666666666,0.976666666666666, 2026-07-23 16:05:53
SZKOŁA PODSTAWOWA NR 2 IM. STEFANA STARZYŃSKIEGO W NASIELSKU, KOŚCIUSZKI, 05-190, NASIELSK,20.801001,52.589717, 61.86666666666667, 988.5, 22.599999999999998,1.333333333333333,0.7766666666666661, 2026-07-23 16:05:53
ZESPÓŁ SZKOLNO-PRZEDSZKOLNY W KAZUNIU NOWYM, GŁÓWNA, 05-152, KAZUŃ NOWY,20.68265,52.419853, 56.13333333333333, 1006.6666666666666, 22.366666666666664,0.333333333333333,0.183333333333333, 2026-07-23 16:05:53
SZKOŁA PODSTAWOWA IM. MIKOŁAJA KOPERNIKA W CIEKSYNIE, MARSZ. JÓZEFA PIŁSUDSKIEGO, 05-192, CIEKSYN,20.666605,52.572132, 99.90000000000002, 993.5666666666666, 22.03333333333333,0.066666666666666,0.046666666666666, 2026-07-23 16:05:53
SZKOŁA PODSTAWOWA NR 5 IM MIKOŁAJA KOPERNIKA W CZECHOWICACH-DZIEDZICACH, KLASZTORNA, 43-502, CZECHOWICE-DZIEDZICE,19.003326,49.908154, 54.56666666666666, 996.1666666666666, 20.96666666666667,6.7,3.6999999999999993, 2026-07-23 16:05:53
SZKOŁA PODSTAWOWA IM. KS. JÓZEFA LONDZINA W ZABRZEGU, KAROLA PYTLA, 43-516, ZABRZEG,18.9401,49.91564, 56.1, 1015.8333333333334, 24.833333333333332,1.933333333333333,1.123333333333333, 2026-07-23 16:05:53
GMINNE PRZEDSZKOLE W NOWEJ WSI, UL. GŁÓWNA, 05-806, NOWA WIEŚ,20.793608032839607,52.14079879793492, 92.8, 1002.5666666666666, 18.46666666666667,1.133333333333333,0.63, 2026-07-23 16:05:53
SZKOŁA PODSTAWOWA IM. JANA PAWŁA II W MICHAŁOWICACH, UL. SZKOLNA, 05-816, MICHAŁOWICE,20.8894743996203,52.16806240949327, 71.73333333333333, 1000.2666666666668, 20.5,12.866666666666667,12.183333333333332, 2026-07-23 16:05:53
SZKOŁA PODSTAWOWA IM. MARII DĄBROWSKIEJ W KOMOROWIE, UL. M. DĄBROWSKIEJ, 05-806, KOMORÓW,20.814969926602924,52.14696671968943, 93.46666666666665, 1001.2333333333332, 19.5,0.033333333333333,0.016666666666666, 2026-07-23 16:05:53
SZKOŁA PODSTAWOWA IM. MIKOŁAJA KOPERNIKA W NOWEJ WSI, UL. GŁÓWNA, 05-806, NOWA WIEŚ,20.80065871311049,52.134787344746286, 92.8, 1002.5666666666666, 18.46666666666667,1.133333333333333,0.63, 2026-07-23 16:05:53
GMINNE PRZEDSZKOLE W MICHAŁOWICACH, UL. SZKOLNA, 05-816, MICHAŁOWICE,20.8908240883606,52.16924425690457, 71.73333333333333, 1000.2666666666668, 20.5,12.866666666666667,12.183333333333332, 2026-07-23 16:05:53
ZESPÓŁ SZKOLNO-PRZEDSZKOLNY W SMOŁDZINIE, BOHATERÓW WARSZAWY, 76-214, SMOŁDZINO,17.217509899999996,54.66198055959346, 99.90000000000002, 1010.6999999999999, 19.166666666666668,0.6000000000000001,0.41, 2026-07-23 16:05:53
ZESPÓŁ SZKOLNO- PRZEDSZKOLNY W0DOBRZYKOWICACH, UL. SUKCESU, 55-002, DOBRZYKOWICE,17.185415,51.092059, 99.90000000000002, 988.3000000000001, 18.2,4.1,2.01, 2026-07-23 16:05:53
SZKOŁA PODSTAWOWA IM. PIASTÓW ŚLĄSKICH W CHRZĄSTAWIE WIELKIEJ, UL. WROCŁAWSKA, 55-003, CZERNICA,17.292154,51.092542, 71.2, 983.2333333333332, 31.0,5.0,3.053333333333333, 2026-07-23 16:05:53
ZESPÓŁ SZKOLNO-PRZEDSZKOLNY IM. PAPIEŻA JANA PAWŁA II W CZERNICY, UL. ŚW. BRATA ALBERTA ADAMA CHMIELOWSKIEGO0, 55-003, CZERNICA,17.248533,51.0473805, 71.89999999999999, 1003.9333333333334, 18.566666666666666,2.166666666666666,1.153333333333333, 2026-07-23 16:05:53
SZKOŁA PODSTAWOWA IM. JANUSZA KORCZAKA W RATOWICACH, UL. WROCŁAWSKA, 55-003, CZERNICA,17.26685,51.033897, 79.0, 985.2666666666668, 18.433333333333334,3.3666666666666663,1.996666666666666, 2026-07-23 16:05:53
SZKOŁA PODSTAWOWA IM. BOLESŁAW KRZYWOUSTEGO W KAMIEŃCU WROCŁAWSKIM, UL. KOLEJOWA, 55-002, KAMIENIEC WROCŁAWSKI,17.173628,51.077638, 93.60000000000001, 986.6666666666666, 19.0,4.566666666666666,2.65, 2026-07-23 16:05:53
SZKOŁA PODSTAWOWA NR 4 IM. JANA MEJSTERA W SŁOMCZYNIE, WILANOWSKA, 05-520, KONSTANCIN-JEZIORNA,21.15329336951058,52.060898677662806, 60.333333333333336, 988.1999999999999, 22.400000000000002,4.266666666666667,2.59, 2026-07-23 16:05:53
PUBLICZNA SZKOŁA PODSTAWOWA W TOMASZOWIE, LEŚNA, 68-114, TOMASZÓW,15.404658513741197,51.622513710796575, 68.93333333333334, 992.0333333333333, 19.166666666666668,5.933333333333335,3.33, 2026-07-23 16:05:53
SZKOŁA PODSTAWOWA NR 29 W LUBLINIE, WAJDELOTY, 20-604, LUBLIN,22.5237824136724,51.2433286093504, 39.0, 998.0, 24.2,3.0,2.0, 2026-07-23 16:05:53
SZKOŁA PODSTAWOWA W SZKODNEJ, , 39-126, SZKODNA,21.6475593266686,49.9841839576423, 70.22999999999999, 974.18, 19.02,2.54,2.54, 2026-07-23 16:05:53
SZKOŁA PODSTAWOWA IM. MARII KONOPNICKIEJ W MŁODOWIE, UL. SZKOLNA, 37-600, MŁODÓW,23.1625474248211,50.1612772043517, 30.681818181818183, 984.0, 29.818181818181817,5.0,4.363636363636363, 2026-07-23 16:05:53
SZKOŁA PODSTAWOWA W SIEDLISKACH, SIEDLISKA, 37-731, PRZEMYŚL,22.8836889838114,49.7739137681101, 42.55833333333333, 983.0833333333334, 24.875,4.583333333333333,4.166666666666667, 2026-07-23 16:05:53
SZKOŁA PODSTAWOWA NR 3 IM. JANA PAWŁA II W ROPCZYCACH, 3 MAJA, 39-100, ROPCZYCE,21.5832672438671,50.0389694490123, 63.125, 985.9166666666666, 18.35,6.5,5.25, 2026-07-23 16:05:53
SZKOŁA PODSTAWOWA NR 2 IM. BŁ. JANA PAWŁA II W LIBIĄŻU, PLAC ZWYCIĘSTWA, 32-590, LIBIĄŻ,19.3064540609702,50.0995764389139, 69.21666666666667, 979.0, 18.599999999999998,2.333333333333333,1.666666666666666, 2026-07-23 16:05:53
SZKOŁA PODSTAWOWA NR 2  IM. KAZIMIERZA BRODZIŃSKIEGO W BOCHNI, ORACKA, 32-700, BOCHNIA,20.4250867479996,49.9702658831946, 50.19166666666666, 984.0833333333334, 22.21666666666667,4.083333333333333,3.916666666666666, 2026-07-23 16:05:53
SZKOŁA PODSTAWOWA IM. KAZIMIERZA GÓRSKIEGO W ŁOZINIE, MILICKA, 55-095, ŁOZINA,17.180298682797538,51.23388117656271, 83.73333333333333, 993.9, 20.900000000000002,19.4,11.6, 2026-07-23 16:05:53
PRZEDSZKOLE W KIEŁCZOWIE, WROCŁAWSKA, 55-093, KIEŁCZÓW,17.19065006929958,51.1371047031024, 57.79999999999999, 999.9, 27.3,5.599999999999999,3.6, 2026-07-23 16:05:53
PRZEDSZKOLE W BLIZNEM JASIŃSKIEGO, UL. TADEUSZA KOŚCIUSZKI, 05-082, BLIZNE JASIŃSKIEGO,20.881159640505192,52.2438730196329, 65.96666666666667, 1002.1333333333333, 20.733333333333334,1.7666666666666662,0.8733333333333331, 2026-07-23 16:05:53
ZESPÓŁ SZKÓŁ W PRUDNIKU, UL. DĄBROWSKIEGO, 48-200, PRUDNIK,17.571637628835184,50.32109542835716, 91.13333333333333, 983.9333333333334, 20.8,0.333333333333333,0.21, 2026-07-23 16:05:53
PRZEDSZKOLE MIŚ USZATEK W OSTROROGU, UL. WRONIECKA, 64-560, OSTRORÓG,16.446531842328756,52.62862454862175, 99.90000000000002, 999.1333333333333, 18.400000000000002,0.1,0.056666666666666, 2026-07-23 16:05:53
SZKOŁA PODSTAWOWA NR 2 IM. GUSTAWA MORCINKA W TOSZKU, UL. WILKOWICKA, 44-180, TOSZEK,18.527405971163624,50.45410812894893, 80.89999999999999, 984.8666666666667, 20.3,1.566666666666666,0.943333333333333, 2026-07-23 16:05:53
SZKOŁA PODSTAWOWA IM. KAWALERÓW ORDERU UŚMIECHU W CZERSKU, UL. WARSZAWSKA, 05-530, CZERSK,21.22709127438472,51.96063591615556, 59.333333333333336, 993.225, 21.058333333333334,1.333333333333333,1.333333333333333, 2026-07-23 16:05:53
PUBLICZNA SZKOŁA PODSTAWOWA IM. JANA PAWŁA II W ROSZOWICKIM LESIE, UL. SZKOLNA, 47-253, ROSZOWICKI LAS,18.21990066,50.26168468, 55.05833333333334, 989.0833333333334, 20.875,2.166666666666666,1.858333333333333, 2026-07-23 16:05:53
SZKOŁA PODSTAWOWA IM. KS. JANA TWARDOWSKIEGO W RACIMIERZU, UL. NIEPODLEGŁOŚCI, 72-111, RACIMIERZ,14.65747308,53.7423708, 42.9, 1010.4083333333333, 22.650000000000002,1.166666666666666,0.9833333333333332, 2026-07-23 16:05:53
I KATOLICKIE SPOŁECZNE LICEUM OGÓLNOKSZTAŁCACE IM.ŚW.BRATA ALBERTA CHMIELOWSKIEGO W PUŁAWACH, UL. STANISŁAWA EUSTACHIEWICZA, 24-100, PUŁAWY,21.95614207,51.41935824, 70.91666666666667, 991.5749999999999, 18.25,1.841666666666666,1.833333333333333, 2026-07-23 16:05:53
TECHNIKUM NR 4 W ZESPOLE SZKÓŁ TECHNICZNYCH IM.M. SKŁODOWSKIEJ-CURIE W PUŁAWACH, UL. WOJSKA POLSKIEGO, 24-100, PUŁAWY,21.97667461,51.41823622, 71.58333333333333, 991.0500000000001, 18.633333333333333,2.891666666666667,2.324999999999999, 2026-07-23 16:05:53
SZKOŁA PODSTAWOWA NR 2 IM. KRZYSZTOFA KAMILA BACZYŃSKIEGO W PUŁAWACH, AL. MAŁA, 24-100, PUŁAWY,21.96276919,51.41579363, 69.65833333333333, 990.8833333333333, 18.599999999999998,2.891666666666667,2.324999999999999, 2026-07-23 16:05:53
SZKOŁA PODSTAWOWA NR 4 IM. PAPIEŻA JANA PAWŁA II W ŁĘCZNEJ, UL. JAŚMINOWA, 21-010, ŁĘCZNA,22.88259013,51.29206273, 74.33333333333333, 988.0583333333334, 18.741666666666667,3.35,3.074999999999999, 2026-07-23 16:05:53
SZKOŁA PODSTAWOWA IM.JOACHIMA LELEWELA W JAKUBOWICACH KONIŃSKICH, UL. SZKOLNA, 21-003, JAKUBOWICE KONIŃSKIE,22.52628594,51.31010447, 77.825, 985.7666666666668, 16.741666666666667,3.316666666666666,3.066666666666666, 2026-07-23 16:05:53
SZKOŁA PODSTAWOWA W KŁODNICY DOLNEJ, , 24-224, KŁODNICA DOLNA,22.28477957,51.06632652, 85.59166666666665, 984.7416666666667, 14.966666666666667,2.2416666666666663,1.666666666666666, 2026-07-23 16:05:53
SZKOŁA PODSTAWOWA NR 6 IM. IRENY SENDLEROWEJ W CHEŁMIE, UL. POWSTAŃCÓW WARSZAWY, 22-100, CHEŁM,23.479142939944666,51.126339150220325, 78.36666666666666, 984.2416666666667, 16.808333333333334,3.258333333333333,2.6999999999999997, 2026-07-23 16:05:53
SZKOŁA PODSTAWOWA NR 4 IM. KORNELA MAKUSZYŃSKIEGO W BIAŁEJ PODLASKIEJ, UL. STANISŁAWA MONIUSZKI, 21-500, BIAŁA PODLASKA,23.1240646,52.03658476, 48.94166666666666, 989.6333333333333, 23.224999999999998,2.933333333333333,2.408333333333333, 2026-07-23 16:05:53
SZKOŁA PODSTAWOWA IM.KSIĘDZA JANA TWARDOWSKIEGO W CZACHÓWKU, UL. GŁÓWNA, 05-530, CZACHÓWEK,21.0884246,51.96101922, 74.58333333333333, 994.7333333333332, 19.766666666666666,1.625,1.383333333333333, 2026-07-23 16:05:53
LICEUM OGÓLNOKSZTAŁCĄCE W LIPSKU, UL. ZWOLEŃSKA, 27-300, LIPSKO,21.65162688,51.16209825, 56.19166666666666, 988.4416666666666, 21.075,1.9083333333333328,1.583333333333333, 2026-07-23 16:05:53
TECHNIKUM NR 2 W GARWOLINIE, UL. ŻOŁNIERZY II ARMII WOJSKA POLSKIEGO, 08-400, GARWOLIN,21.5953052,51.89704263, 79.875, 992.2833333333333, 17.383333333333333,2.3,1.875, 2026-07-23 16:05:53
PUBLICZNA SZKOŁA PODSTAWOWA IM. O. STANISŁAWA PAPCZYŃSKIEGO W MARIAŃSKIM PORZECZU, , 08-470, MARIAŃSKIE PORZECZE,21.33261521,51.88402213, 59.775, 995.15, 20.741666666666667,1.5166666666666662,1.3083333333333331, 2026-07-23 16:05:53
SZKOŁA MUZYCZNA I ST. W GARWOLINIE, UL. JANA PAWŁA II, 08-400, GARWOLIN,21.61280145,51.89874672, 74.83333333333333, 991.5333333333333, 18.75,2.6,2.141666666666666, 2026-07-23 16:05:53
SZKOŁA PODSTAWOWA NR 2 W KONSTANCINIE-JEZIORNEJ, UL. STEFANA ŻEROMSKIEGO, 05-510, KONSTANCIN-JEZIORNA,21.12317779,52.07946519, 64.60000000000001, 995.0166666666668, 20.166666666666668,1.5,1.349999999999999, 2026-07-23 16:05:53
TECHNIKUM NR 2 IM. EMILII PLATER W PIASECZNIE, UL. ALEJA BRZÓZ, 05-501, PIASECZNO,21.02070292,52.0540252, 73.29166666666667, 995.4666666666667, 19.4,2.083333333333333,1.841666666666666, 2026-07-23 16:05:53
PUBLICZNA SZKOŁA PODSTAWOWA IM.KORNELA MAKUSZYŃSKIEGO W UGNIEWIE, UL. SZKOLNA, 07-300, UGNIEWO,21.91017286,52.8032487, 67.125, 992.05, 19.625,12.975,12.825, 2026-07-23 16:05:53
SZKOŁA PODSTAWOWA NR 2 IM. FRYDERYKA CHOPINA W MALKINI GÓRNEJ, UL. LEŚNA, 07-320, MAŁKINIA GÓRNA,22.05928062,52.6945031, 57.291666666666664, 994.2583333333333, 24.066666666666666,2.6,2.5749999999999997, 2026-07-23 16:05:53
SZKOŁA PODSTAWOWA IM. BŁOGOSŁAWIONEGO OJCA STANISŁAWA PAPCZYŃSKIEGO W KĄTACH, UL. PUŁAWSKA, 05-532, KĄTY,21.17263735,52.00208981, 62.550000000000004, 993.1750000000001, 20.125,1.791666666666666,1.5999999999999992, 2026-07-23 16:05:53
TECHNIKUM GASTRONOMICZNE W GDYNI, UL. MORSKA, 81-222, GDYNIA,18.51581066,54.52508818, 63.725, 1005.025, 20.491666666666667,3.183333333333333,2.85, 2026-07-23 16:05:53
SZKOŁA PODSTAWOWA W ZŁOTOKŁOSIE, UL. TRAUGUTTA, 05-504, ZŁOTOKŁOS,20.90784407,52.00962311, 75.325, 993.7416666666667, 18.825,1.441666666666666,1.233333333333333, 2026-07-23 16:05:53
SZKOŁA PODSTAWOWA IM. FELIKSA KAPACKIEGO W CENDROWICACH, UL. SZKOLNA, 05-530, CENDROWICE,21.13239127,51.96755856, 59.199999999999996, 991.3083333333334, 21.483333333333334,1.691666666666666,1.483333333333333, 2026-07-23 16:05:53
SZKOŁA PODSTAWOWA W BIAŁUSNYM LASKU, , 07-430, BIAŁUSNY LASEK,21.30430342,53.35698702, 59.416666666666664, 991.275, 22.566666666666666,2.6,2.2416666666666663, 2026-07-23 16:05:53
SZKOŁA PODSTAWOWA IM. KS. JANA TWARDOWSKIEGO W GLINIE, , 07-320, GLINA,21.95984362,52.6962338, 61.68333333333334, 992.2916666666666, 20.675,2.541666666666666,2.541666666666666, 2026-07-23 16:05:53
PUBLICZNE TECHNIKUM LEŚNE ZESPOŁU SZKÓŁ W TUŁOWICACH, UL. ZAMKOWA, 49-130, TUŁOWICE,17.65698382,50.59142765, 53.699999999999996, 991.9166666666666, 20.89166666666667,2.8666666666666663,2.475, 2026-07-23 16:05:53
TECHNIKUM W PSZOWIE, UL. ROMUALDA TRAUGUTTA, 44-370, PSZÓW,18.40378202,50.0419266, 75.2, 974.2583333333333, 17.65,2.808333333333333,2.508333333333333, 2026-07-23 16:05:53
SZKOŁA PODSTAWOWA ZESPOŁU SZKÓŁ IM. BOLESŁAWA CHROBREGO W NIEMODLINIE, UL. OPOLSKA , 49-100, NIEMODLIN,17.63285173,50.64185007, 62.06666666666667, 992.7833333333333, 19.875,2.9666666666666672,2.633333333333333, 2026-07-23 16:05:53
TECHNIKUM W RYDUŁTOWACH, UL. OBYWATELSKA, 44-280, RYDUŁTOWY,18.42658537,50.07171957, 77.60833333333333, 975.6416666666668, 17.958333333333332,2.408333333333333,2.116666666666666, 2026-07-23 16:05:53
SZKOŁA PODSTAWOWA IM.KARDYNAŁA STEFANA WYSZYŃSKIEGO W TELATYNIE, UL. KARDYNAŁA STEFANA WYSZYŃSKIEGO, 22-652, TELATYN,23.8446095,50.52250671, 49.94166666666666, 981.5583333333334, 23.78333333333333,4.0,3.483333333333333, 2026-07-23 16:05:53
TECHNIKUM NR 1 W ŚWIDNIKU, UL. SZKOLNA, 21-045, ŚWIDNIK,22.69752657,51.22672919, 76.36666666666666, 982.85, 17.041666666666668,2.891666666666667,2.6166666666666663, 2026-07-23 16:05:53
SZKOŁA PODSTAWOWA W OŁDAKACH, , 07-411, OŁDAKI,21.692978,53.095518, 69.47500000000001, 994.7666666666668, 20.441666666666666,0.7583333333333331,0.683333333333333, 2026-07-23 16:05:53
SZKOŁA PODSTAWOWA IM.J.WYBICKIEGO W POLNICY, , 77-300, POLNICA,17.40057712,53.75198216, 78.14166666666667, 992.1416666666668, 17.808333333333334,2.6,2.324999999999999, 2026-07-23 16:05:53
SZKOŁA PODSTAWOWA W RAJKOWACH W ZESPOLE KSZTAŁCENIA I WYCHOWANIA W RAJKOWACH, UL. JESIONOWA, 83-130, RAJKOWY,18.7092112,53.9610738, 75.05, 999.4916666666667, 20.141666666666666,2.625,2.308333333333333, 2026-07-23 16:05:53
LICEUM OGÓLNOKSZTAŁCĄCE W REDZIE, UL. ŁĄKOWA, 84-240, REDA,18.3577379,54.60185, 65.55, 1006.4166666666666, 19.658333333333335,3.166666666666666,2.858333333333333, 2026-07-23 16:05:53
SZKOŁA PODSTAWOWA IM. MARYNARKI WOJENNEJ RP W OSTASZEWIE, UL. KOŚCIUSZKI, 82-112, OSTASZEWO,18.9507202,54.2131383, 69.36666666666666, 1006.2833333333333, 21.45,2.141666666666666,1.8916666666666664, 2026-07-23 16:05:53
TECHNIKUM NR 2 W BYTOWIE, UL. HIERONIMA DERDOWSKIEGO, 77-100, BYTÓW,17.48812443,54.16585829, 68.375, 992.6750000000001, 20.025000000000002,2.9499999999999997,2.666666666666666, 2026-07-23 16:05:53
SZKOŁA PODSTAWOWA W ZIELINIE, UL. PRUDNICKA, 47-370, ZIELINA,17.7989291,50.4408404, 51.06666666666666, 988.3333333333334, 21.425,2.783333333333333,2.333333333333333, 2026-07-23 16:05:53
SZKOŁA PODSTAWOWA STOWARZYSZENIA ZŁOTY POTOK W ŁĄCE PRUDNICKIEJ, UL. GŁUCHOŁASKA, 48-200, ŁĄKA PRUDNICKA,17.528406,50.313494, 61.809090909090905, 977.4727272727273, 19.772727272727273,2.3,2.0, 2026-07-23 16:05:53
SZKOŁA PODSTAWOWA W ŁUBNIE, , 77-140, ŁUBNO,17.22653098,54.15365707, 76.26666666666667, 991.8666666666667, 17.125,2.25,1.833333333333333, 2026-07-23 16:05:53
SZKOŁA PODSTAWOWA NR 3 IM. MARII KONOPNICKIEJ W BIAŁEJ PODLASKIEJ, UL. SPORTOWA, 21-500, BIAŁA PODLASKA,23.119378,52.022177, 49.24166666666667, 988.9666666666667, 24.208333333333332,1.825,1.825, 2026-07-23 16:05:53
PUBLICZNA SZKOŁA PODSTAWOWA IM. KSIĘDZA JANA TWARDOWSKIEGO W JANUSZKOWICACH, UL. LESIAŃSKA, 47-330, JANUSZKOWICE,18.1356599,50.3898439, 57.885714285714286, 989.7, 20.014285714285712,2.014285714285714,1.771428571428571, 2026-07-23 16:05:53
SZKOŁA PODSTAWOWA IM. MARII SKŁODOWSKIEJ-CURIE W ALWERNI, UL. MARII SKŁODOWSKIEJ-CURIE, 32-566, ALWERNIA,19.542471211821844,50.06505227372774, 82.28181818181818, 974.4727272727273, 16.80909090909091,3.945454545454545,3.418181818181818, 2026-07-23 16:05:53
SZKOŁA PODSTAWOWA IM. MIKOŁAJA KOPERNIKA W BALINIE, UL. JAWORZNICKA, 32-500, BALIN,19.373681797572548,50.17107310274746, 82.53333333333333, 973.625, 17.541666666666668,3.608333333333333,3.066666666666666, 2026-07-23 16:05:53
TECHNIKUM NR 2 IM. BOHATERÓW WESTERPLATTE W KLUCZBORKU, UL. BYCZYŃSKA, 46-200, KLUCZBORK,18.20597356,50.97669665, 68.75, 988.2666666666668, 19.175,1.983333333333333,1.983333333333333, 2026-07-23 16:05:53
PUBLICZNA SZKOŁA PODSTAWOWA IM.HALINY SEMENOWICZ W MOSZCZANCE, , 48-200, MOSZCZANKA,17.483901,50.295686, 66.85833333333333, 974.9, 20.508333333333333,1.583333333333333,1.583333333333333, 2026-07-23 16:05:53
BRANŻOWA SZKOŁA I STOPNIA W ŁASKARZEWIE, UL. KOLEJOWA, 08-450, ŁASKARZEW,21.599958,51.788404, 80.31666666666666, 990.8083333333334, 17.883333333333333,1.916666666666666,1.5750000000000002, 2026-07-23 16:05:53
SZKOŁA PODSTAWOWA IM.ŻWIRKI I WIGURY W RADOCZY, UL. DĘBOWA, 34-100, RADOCZA,19.4703966,49.9176909, 84.75, 977.6916666666667, 16.758333333333333,2.858333333333333,2.3, 2026-07-23 16:05:53
SZKOŁA PODSTAWOWA NR 5 IM. MARII KONOPNICKIEJ W CHEŁMIE, UL. I PUŁKU SZWOLEŻERÓW, 22-100, CHEŁM,23.481093,51.134591, 78.43333333333334, 984.7166666666667, 16.691666666666666,3.183333333333333,2.658333333333333, 2026-07-23 16:05:53
LICEUM OGÓLNOKSZTAŁCĄCE IM. KS. J. ST. PASIERBA W PELPLINIE, UL. SAMBORA, 83-130, PELPLIN,18.6979422,53.9283135, 74.98333333333333, 1001.4250000000001, 19.65,2.641666666666666,2.383333333333333, 2026-07-23 16:05:53
TECHNIKUM W GŁOGÓWKU, UL. POWSTAŃCÓW, 48-250, GŁOGÓWEK,17.86435,50.35349, 52.34166666666667, 986.0, 20.875,1.8916666666666664,1.5750000000000002, 2026-07-23 16:05:53
SZKOŁA PODSTAWOWA NR 2 IM. KS. STANISŁAWA STASZICA W CHEŁMIE, UL. OBŁOŃSKA, 22-100, CHEŁM,23.47575683,51.13815167, 81.34166666666667, 986.1083333333332, 16.466666666666665,4.0,3.416666666666666, 2026-07-23 16:05:53
SZKOŁA PODSTAWOWA NR 8 IM. BOLESŁAWA ZYGMUNTA WIRSKIEGO W CHEŁMIE, UL. POŁANIECKA, 22-100, CHEŁM,23.477306,51.123224, 74.18333333333334, 984.3249999999999, 17.433333333333334,4.408333333333333,3.733333333333333, 2026-07-23 16:05:53
SZKOŁA PODSTAWOWA NR 10 Z ODDZIAŁAMI INTEGRACYJNYMI IM. WALERIANA ŁUKASIŃSKIEGO W ZAMOŚCIU, UL. PEOWIAKÓW, 22-400, ZAMOŚĆ,23.25695961789249,50.72103172968299, 51.86666666666667, 981.9666666666667, 23.375,3.683333333333333,3.125, 2026-07-23 16:05:53
ZESPÓŁ SZKÓŁ GMINNYCH IM. HENRYKA SIENKIEWICZA W BOGUCICACH SZKOŁA PODSTAWOWA W BOGUCICACH, , 32-711, BOGUCICE,20.498337,50.057389, 59.675000000000004, 988.8416666666667, 22.291666666666668,1.758333333333333,1.508333333333333, 2026-07-23 16:05:53
PUBLICZNA SZKOŁA PODSTAWOWA W NIEDZIELISKACH, , 32-820, NIEDZIELISKA,20.632091271164818,50.09115399071606, 58.416666666666664, 987.0583333333334, 22.125,2.008333333333333,1.7833333333333332, 2026-07-23 16:05:53
TECHNIKUM W ZESPOLE SZKÓŁ AGROBIZNESU IM.MACIEJA RATAJA W KLEMENTOWICACH, , 24-170, KLEMENTOWICE,22.113069,51.362926, 70.55833333333334, 988.1, 18.041666666666668,0.6333333333333331,0.399999999999999, 2026-07-23 16:05:53
PUBLICZNA SZKOŁA PODSTAWOWA IM. KAZIMIERZA RASŁAWSKIEGO W BORZECHOWIE , , 24-224, BORZECHÓW-KOLONIA,22.2853918,51.09246552, 75.60833333333333, 983.9166666666666, 16.383333333333333,2.083333333333333,1.775, 2026-07-23 16:05:53
SZKOŁA PODSTAWOWA NR 117 IM. KRAKOWSKIEJ KONGREGACJI KUPIECKIEJ W KRAKOWIE, UL. JANA KURCZABA, 30-868, KRAKÓW-PODGÓRZE,20.00687205767037,50.01317838097981, 62.06666666666666, 984.7916666666666, 18.841666666666665,1.625,1.4916666666666671, 2026-07-23 16:05:53
VI LICEUM OGÓLNOKSZTAŁCĄCE IM. HUGONA KOŁŁĄTAJA W LUBLINIE, UL. ADAMA MICKIEWICZA, 20-466, LUBLIN,22.577994,51.216809, 99.7, 987.5500000000001, 17.341666666666665,3.158333333333333,3.0, 2026-07-23 16:05:53
SZKOŁA PODSTAWOWA W ORLE, , 07-320, ORŁO,21.989508,52.732095, 52.5, 992.1750000000001, 22.166666666666668,3.074999999999999,2.791666666666666, 2026-07-23 16:05:53
SZKOŁA PODSTAWOWA IM. WINCENTEGO WITOSA W GROMNIKU, UL. WITOSA, 33-180, GROMNIK,20.959304,49.840276, 60.03333333333333, 979.4083333333333, 20.525000000000002,1.8,1.566666666666666, 2026-07-23 16:05:53
AKADEMIA NAJMŁODSZYCH KRZYSZTOF GOŁAŚ NIEPUBLICZNA SZKOŁA PODSTAWOWA W KADZIDLE, UL. BRZOZOWA, 07-420, KADZIDŁO,21.450353,53.231522, 50.35, 991.6333333333333, 22.933333333333334,2.925,2.583333333333333, 2026-07-23 16:05:53
SZKOŁA PODSTAWOWA IM. ŚW. STANISŁAWA KOSTKI W AMELINIE, , 06-212, AMELIN,20.92818124,52.98166409, 62.53333333333333, 992.225, 21.116666666666664,3.733333333333333,3.275, 2026-07-23 16:05:53
SZKOŁA PODSTAWOWA SPECJALNA NR 44 IM. JANA BRZECHWY W KRAKOWIE, UL. ZAKĄTEK, 30-076, KRAKÓW,19.916426,50.076299, 78.94166666666666, 984.6, 15.85,3.166666666666666,2.641666666666666, 2026-07-23 16:05:53
SZKOŁA PODSTAWOWA NR 1 IM. ŚW. JADWIGI KRÓLOWEJ W PODWILKU, , 34-722, PODWILK,19.7397286,49.547978, 69.125, 931.9416666666666, 16.925,2.908333333333333,2.8, 2026-07-23 16:05:53
LICEUM OGÓLNOKSZTAŁCĄCE KADETÓW RZECZYPOSPOLITEJ POLSKIEJ W LIPINACH, , 26-425, LIPINY,20.511418,51.54591, 75.39999999999999, 989.6750000000001, 20.241666666666667,1.591666666666666,1.375, 2026-07-23 16:05:53
SZKOŁA PODSTAWOWA NR 1 W BIAŁYM BORZE, UL. DWORCOWA, 78-425, BIAŁY BÓR,16.84535152,53.89895274, 85.50833333333333, 987.5416666666666, 15.583333333333334,1.483333333333333,1.266666666666666, 2026-07-23 16:05:53
SZKOŁA PODSTAWOWA IM.NOBLISTÓW POLSKICH W SIEMYŚLU, UL. SZKOLNA, 78-123, SIEMYŚL,15.53351351,54.02888072, 64.18333333333334, 1006.9499999999999, 18.825,1.325,1.208333333333333, 2026-07-23 16:05:53
SZKOŁA PODSTAWOWA W DASZEWIE, , 78-230, DASZEWO,15.881284,54.081214, 71.89999999999999, 1006.4416666666666, 17.849999999999998,1.158333333333333,1.083333333333333, 2026-07-23 16:05:53
SZKOŁA PODSTAWOWA NR 1 IM. ADAMA MICKIEWICZA W POŁCZYNIE-ZDROJU, UL. GRUNWALDZKA, 78-320, POŁCZYN-ZDRÓJ,16.095199000000004,53.76789333949964, 76.60000000000001, 999.65, 17.025,1.983333333333333,1.883333333333333, 2026-07-23 16:05:53
SZKOŁA PODSTAWOWA W DARGINI, , 76-020, DARGIŃ,16.3943428,54.0157172, 82.4, 997.74, 16.4,1.26,1.0, 2026-07-23 16:05:53
ARCHIDIECEZJALNA SZKOŁA MUZYCZNA II ST. IM. KS. KARD. FRANCISZKA MACHARSKIEGO W KRAKOWIE, UL. PROSTA, 30-814, KRAKÓW-PODGÓRZE,19.988467,50.020869, 53.46, 983.3800000000001, 20.15,2.88,2.4, 2026-07-23 16:05:53
SZKOŁA PODSTAWOWA Z ODDZIAŁAMI INTEGRACYJNYMI NR 30 IM. KAZIMIERZA PUŁASKIEGO W KRAKOWIE, UL. KONFEDERACKA, 30-306, KRAKÓW-PODGÓRZE,19.927626,50.048977, 69.11666666666666, 985.4333333333334, 17.325,3.308333333333333,2.683333333333333, 2026-07-23 16:05:53
SPOŁECZNA SZKOŁA PODSTAWOWA NR 2 SPOŁECZNEGO TOWARZYSTWA OŚWIATOWEGO W TARNOWIE, UL. JANA MATEJKI, 33-100, TARNÓW,20.98127883,50.01473267, 57.24166666666667, 997.025, 20.966666666666665,3.041666666666666,2.625, 2026-07-23 16:05:53
XII LICEUM OGÓLNOKSZTAŁCĄCE W ZESPOLE SZKÓŁ MECHANICZNO-ELEKTRYCZNYCH W TARNOWIE, UL. JÓZEFA SZUJSKIEGO, 33-100, TARNÓW,20.975575,50.015268, 55.375, 985.3083333333334, 21.891666666666666,2.9,2.5, 2026-07-23 16:05:53
TECHNIKUM NR 1 W ZESPOLE SZKÓŁ TECHNICZNYCH IM.IGNACEGO MOŚCICKIEGO W TARNOWIE, UL. EUGENIUSZA KWIATKOWSKIEGO, 33-101, TARNÓW,20.9172948,50.01387361, 61.666666666666664, 985.5500000000001, 20.408333333333335,2.5,2.191666666666667, 2026-07-23 16:05:53
SZKOŁA PODSTAWOWA W ZESPOLE SZKÓŁ IM.MĘCZENNIKÓW MARSZU ŚMIERCI KL STUTTHOF W GARCZEGORZU, , 84-351, GARCZEGORZE,17.72784195,54.59420501, 73.625, 1001.1999999999999, 18.541666666666668,2.6,2.35, 2026-07-23 16:05:53
PUBLICZNA SZKOŁA PODSTAWOWA NR 1 IM.BOHATERÓW WESTERPLATTE W PRUDNIKU, UL. PODGÓRNA, 48-200, PRUDNIK,17.595989,50.32052, 81.0, 980.2166666666667, 19.95,1.408333333333333,1.125, 2026-07-23 16:05:53
ZESPÓŁ SZKÓŁ GMINNYCH IM. MIKOŁAJA KOPERNIKA W GAWŁOWIE SZKOŁA PODSTAWOWA Z ODDZIAŁAMI SPORTOWYMI W GAWŁOWIE, , 32-711, GAWŁÓW,20.463199,50.026547, 56.166666666666664, 986.9, 22.333333333333332,1.533333333333333,1.416666666666666, 2026-07-23 16:05:53
SZKOŁA PODSTAWOWA SPECJALNA W GRÓJCU, UL. POLNA, 05-600, GRÓJEC,20.863021,51.862928, 79.33333333333333, 988.4833333333332, 18.141666666666666,1.925,1.591666666666666, 2026-07-23 16:05:53
PUBLICZNA SZKOŁA PODSTAWOWA W SUCHEJ, UL. SZLACHECKA, 26-800, SUCHA,20.953664,51.617246, 81.68333333333334, 992.0333333333333, 18.75,1.7666666666666662,1.625, 2026-07-23 16:05:53
TECHNIKUM W WARCE, UL. OBWODOWA, 05-660, WARKA,21.182782,51.79066, 63.050000000000004, 992.6833333333334, 20.583333333333332,1.625,1.341666666666666, 2026-07-23 16:05:53
SZKOŁA PODSTAWOWA NR 4 W RYDUŁTOWACH, UL. STRZELCÓW BYTOMSKICH, 44-280, RYDUŁTOWY,18.417777,50.06633209, 74.84166666666667, 977.4333333333334, 19.458333333333332,1.425,1.25, 2026-07-23 16:05:53
PUBLICZNA SZKOŁA PODSTAWOWA NR 1 IM. BOLESŁAWA KRZYWOUSTEGO W KOŻUCHOWIE, UL. CHOPINA, 67-120, KOŻUCHÓW,15.5962077,51.7425702, 70.16666666666667, 998.2333333333332, 20.158333333333335,3.908333333333333,3.416666666666666, 2026-07-23 16:05:53
PUBLICZNA SZKOŁA PODSTAWOWA NR 1 IM. KOMISJI EDUKACJI NARODOWEJ W BIAŁOBRZEGACH, UL. RZEMIEŚLNICZA, 26-800, BIAŁOBRZEGI,20.9533613,51.64505952, 85.60833333333333, 996.35, 17.316666666666666,1.8499999999999992,1.5750000000000002, 2026-07-23 16:05:53
TECHNIKUM IM. ZESŁAŃCÓW SYBIRU W BRODNICY, UL. KARBOWSKA, 87-300, BRODNICA,19.4065091,53.2579165, 77.56666666666668, 997.0083333333333, 19.566666666666666,5.033333333333334,4.316666666666666, 2026-07-23 16:05:53
LICEUM OGÓLNOKSZTAŁCĄCE W TARCZYNIE, UL. KS. CZESŁAWA OSZKIELA, 05-555, TARCZYN,20.83477,51.98106, 73.63333333333334, 990.275, 18.816666666666666,1.941666666666666,1.75, 2026-07-23 16:05:53
SZKOŁA PODSTAWOWA IM. BŁOGOSŁAWIONEGO KS. JERZEGO POPIEŁUSZKI W NIECZAJNIE GÓRNEJ, , 33-205, NIECZAJNA GÓRNA,21.052364,50.180347, 58.38333333333333, 985.9250000000001, 21.158333333333335,1.983333333333333,1.666666666666666, 2026-07-23 16:05:53
SZKOŁA PODSTAWOWA NR 86 IM. POWSTAŃCÓW ŚLĄSKICH W KRAKOWIE, OS. OSIEDLE JAGIELLOŃSKIE, 31-833, KRAKÓW-NOWA HUTA,20.027067,50.084753, 76.13333333333334, 987.1583333333333, 17.224999999999998,3.333333333333333,3.058333333333333, 2026-07-23 16:05:53
SZKOŁA PODSTAWOWA IM. POWSTAŃCÓW STYCZNIOWYCH W DALIKOWIE, UL. ŁĘCZYCKA, 99-205, DALIKÓW,19.10104737,51.8835744, 81.10000000000001, 989.5583333333334, 17.675,2.666666666666666,2.25, 2026-07-23 16:05:53
BRANŻOWA SZKOŁA I STOPNIA SPECJALNA W SKAWINIE W SPECJALNYM OŚRODKU SZKOLNO-WYCHOWAWCZYM IM. POCZTY POLSKIEJ W SKAWINIE, UL. ŻWIRKI I WIGURY, 32-050, SKAWINA,19.825058,49.973327, 65.74545454545455, 985.1181818181817, 19.072727272727274,3.627272727272727,3.127272727272727, 2026-07-23 16:05:53
PUBLICZNA SZKOŁA PODSTAWOWA W JAWORZU GÓRNYM, , 39-223, JAWORZE GÓRNE,21.354123,49.94549, 71.70833333333333, 981.875, 19.53333333333333,2.908333333333333,2.475, 2026-07-23 16:05:53
SZKOŁA PODSTAWOWA NR 234 IM. JULIANA TUWIMA W WARSZAWIE, UL. ESPERANTO, 01-049, WARSZAWA,20.980951,52.244004, 71.15833333333333, 992.5916666666667, 19.45,1.4333333333333331,1.4333333333333331, 2026-07-23 16:05:53
XI LICEUM OGÓLNOKSZTAŁCĄCE IM. MIKOŁAJA REJA W WARSZAWIE, PL. PLAC STANISŁAWA MAŁACHOWSKIEGO, 00-063, WARSZAWA,21.01075177068874,52.238891020514885, 65.41666666666667, 992.625, 20.808333333333334,2.266666666666666,2.183333333333333, 2026-07-23 16:05:53
SZKOŁA PODSTAWOWA IM. ŚW. JADWIGI KRÓLOWEJ POLSKI W LISIEJ GÓRZE, UL. SZKOLNA, 33-140, LISIA GÓRA,21.04434023989556,50.08140809669519, 53.5, 979.4499999999999, 22.566666666666666,2.55,2.333333333333333, 2026-07-23 16:05:53
SZKOŁA PODSTAWOWA NR 89 IM. TADEUSZA MAZOWIECKIEGO W GDAŃSKU, UL. SZYPRÓW, 80-335, GDAŃSK,18.5764229,54.422398, 74.5, 1007.225, 18.375,1.775,1.349999999999999, 2026-07-23 16:05:53
SZKOŁA PODSTAWOWA NR 82 IM. PROF. JANA CZOCHRALSKIEGO W GDAŃSKU, UL. RADAROWA, 80-298, GDAŃSK,18.4834117,54.3881906, 59.60833333333333, 989.1750000000001, 21.55,2.775,2.408333333333333, 2026-07-23 16:05:53
SZKOŁA TECHNICZNA BYDGOSKIEGO ZAKŁADU DOSKONALENIA ZAWODOWEGO W CHOJNICACH, UL. KOŚCIERSKA, 89-600, CHOJNICE,17.57105185,53.69729052, 81.72500000000001, 987.2583333333333, 17.441666666666666,3.191666666666666,2.783333333333333, 2026-07-23 16:05:53
PRYWATNA SZKOŁA PODSTAWOWA NAJA SZKOŁA W WEJHEROWIE, UL. PRZEMYSŁOWA, 84-200, WEJHEROWO,18.21802095,54.61295281, 69.94166666666666, 1004.025, 19.325,3.391666666666667,3.05, 2026-07-23 16:05:53
ZESPÓŁ PLACÓWEK OŚWIATOWYCH SZKOŁA PODSTAWOWA IM. JÓZEFA BEMA W WOLI FILIPOWSKIEJ, UL. SZKOLNA, 32-065, WOLA FILIPOWSKA,19.5849512,50.1324622, 78.70833333333333, 977.7333333333332, 17.858333333333334,0.0,0.0, 2026-07-23 16:05:53
SZKOŁA PODSTAWOWA W NOWYCH ŁUBKACH, , 09-454, NOWE ŁUBKI,20.0336032,52.5782308, 69.77499999999999, 998.1833333333334, 19.516666666666666,2.6999999999999997,2.324999999999999, 2026-07-23 16:05:53
SZKOŁA PODSTAWOWA NR 36 IM. JULIANA TUWIMA W ZABRZU, PL. PLAC WARSZAWSKI, 41-800, ZABRZE,18.78893235,50.30422484, 65.81666666666666, 979.4166666666666, 19.608333333333334,2.449999999999999,2.05, 2026-07-23 16:05:53
III LICEUM OGÓLNOKSZTAŁCĄCE Z ODDZIAŁAMI DWUJĘZYCZNYMI W ZABRZU, UL. HENRYKA SIENKIEWICZA, 41-800, ZABRZE,18.7957049,50.29655227, 66.13333333333334, 977.25, 19.366666666666667,2.891666666666667,2.425, 2026-07-23 16:05:53
SZKOŁA PODSTAWOWA NR 48 W ZABRZU W CENTRUM KSZTAŁCENIA OGÓLNEGO I ZAWODOWEGO W ZABRZU, UL. ZWROTNICZA, 41-807, ZABRZE,18.76624,50.343641, 61.4, 980.0166666666668, 19.816666666666666,2.791666666666666,2.316666666666667, 2026-07-23 16:05:53
BRANŻOWA SZKOŁA I STOPNIA NR 6 W ZABRZU W ZABRZAŃSKIM CENTRUM KSZTAŁCENIA OGÓLNEGO I ZAWODOWEGO W ZABRZU, UL. MARSZAŁKA JÓZEFA PIŁSUDSKIEGO, 41-800, ZABRZE,18.76296398,50.29894695, 70.30833333333334, 981.2583333333333, 20.066666666666666,3.916666666666666,3.208333333333333, 2026-07-23 16:05:53
SZKOŁA PODSTAWOWA NR 29 W ZABRZU, UL. BUDOWLANA, 41-808, ZABRZE,18.791604,50.364381, 59.4, 977.2083333333334, 21.216666666666665,2.3666666666666663,1.983333333333333, 2026-07-23 16:05:53
IV LICEUM OGÓLNOKSZTAŁCĄCE IM. MIKOŁAJA REJA W ZABRZU, UL. GEN. WŁADYSŁAWA ANDERSA, 41-808, ZABRZE,18.795194,50.369265, 62.300000000000004, 977.4, 20.95,2.483333333333333,2.074999999999999, 2026-07-23 16:05:53
SZKOŁA PODSTAWOWA NR 41 IM. WŁADYSŁAWA BRONIEWSKIEGO W GLIWICACH, UL. KORMORANÓW, 44-100, GLIWICE,18.6561,50.274791, 69.11666666666666, 980.8916666666668, 19.616666666666667,3.408333333333333,2.8416666666666672, 2026-07-23 16:05:53
SZKOŁA PODSTAWOWA NR 7 IM. ADAMA MICKIEWICZA W GLIWICACH, UL. TARNOGÓRSKA, 44-100, GLIWICE,18.684621,50.306626, 73.71666666666667, 980.4916666666667, 18.46666666666667,3.25,2.675, 2026-07-23 16:05:53
MIEJSKA SZKOŁA PODSTAWOWA Z ODDZIAŁAMI INTEGRACYJNYMI NR 2 IM. KAROLA MIARKI W KNUROWIE, UL. WILSONA, 44-190, KNURÓW,18.664685,50.223275, 66.38333333333334, 981.5166666666668, 20.566666666666666,2.658333333333333,2.266666666666666, 2026-07-23 16:05:53
SZKOŁA PODSTAWOWA IM. MARGARETHY KAMPRAD W JAROSTACH, UL. LEŚNA, 97-310, JAROSTY,19.68775849,51.45636536, 66.25, 984.275, 19.991666666666667,2.041666666666666,2.041666666666666, 2026-07-23 16:05:53
SZKOŁA PODSTAWOWA IM. DR HENRYKA JORDANA W KSAWEROWIE, UL. ZACHODNIA, 95-054, KSAWERÓW,19.39486431,51.68227822, 80.60833333333333, 984.6416666666668, 17.258333333333333,3.016666666666667,2.4916666666666663, 2026-07-23 16:05:53
BRANŻOWA SZKOŁA I STOPNIA NR 1 W OPOCZNIE, UL. WOJCIECHA KOSSAKA, 26-300, OPOCZNO,20.27237638,51.37764127, 58.925000000000004, 985.0416666666666, 21.758333333333336,1.366666666666666,1.15, 2026-07-23 16:05:53
SZKOŁA PODSTAWOWA NR 157 IM. IGNACEGO JANA PADEREWSKIEGO W KRAKOWIE, UL. LUDWIKA RYDYGIERA, 30-695, KRAKÓW-PODGÓRZE,20.00607,50.006338, 57.38333333333333, 981.6999999999999, 21.058333333333334,2.475,2.05, 2026-07-23 16:05:53
I LICEUM OGÓLNOKSZTAŁCĄCE IM. JĘDRZEJA ŚNIADECKIEGO W PABIANICACH, UL. STANISŁAWA MONIUSZKI, 95-200, PABIANICE,19.32977177,51.65677453, 80.325, 984.1583333333333, 17.316666666666666,2.8,2.3, 2026-07-23 16:05:53
SZKOŁA PODSTAWOWA IM.MARII KONOPNICKIEJ W ROZTOCE, , 34-606, ROZTOKA,20.4571424,49.6263815, 59.99166666666667, 947.5666666666666, 19.7,6.833333333333333,6.008333333333333, 2026-07-23 16:05:53
PUBLICZNA SZKOŁA PODSTAWOWA W STOBIECKU SZLACHECKIM, , 97-561, STOBIECKO SZLACHECKIE,19.38629184,51.10621326, 76.7, 981.3166666666666, 17.383333333333333,2.266666666666666,2.25, 2026-07-23 16:05:53
SZKOŁA PODSTAWOWA IM. JANA PAWŁA II W USTKOWIE, , 98-290, USTKÓW,18.600692,51.766123, 90.95833333333333, 991.5916666666667, 16.591666666666665,2.15,1.825, 2026-07-23 16:05:53
SZKOŁA PODSTAWOWA NR 60 IM. STANISŁAWA WYSPIAŃSKIEGO W KRAKOWIE, UL. KAZIMIERZA ODNOWICIELA, 31-481, KRAKÓW-ŚRÓDMIEŚCIE,19.970521,50.088055, 79.37, 983.6200000000001, 15.99,2.719999999999999,2.3, 2026-07-23 16:05:53
SZKOŁA PODSTAWOWA IM. MARSZAŁKA JÓZEFA PIŁSUDSKIEGO W WARTKOWICACH, UL. LEGIONÓW POLSKICH, 99-220, WARTKOWICE,19.00434298,51.97577194, 85.45833333333333, 993.3333333333334, 16.616666666666667,2.9666666666666672,2.525, 2026-07-23 16:05:53
SZKOŁA PODSTAWOWA NR 2 IM. KONSTYTUCJI 3-GO MAJA W MĘCINIE, , 34-654, MĘCINA,20.5404381,49.7016283, 60.38333333333333, 953.5666666666666, 19.941666666666666,2.275,1.9749999999999992, 2026-07-23 16:05:53
BRANŻOWA SZKOŁA I STOPNIA NR 2 W GORLICACH, UL. JÓZEFA MICHALUSA, 38-300, GORLICE,21.173963,49.66959, 73.80833333333334, 976.6416666666668, 17.183333333333334,1.3,1.15, 2026-07-23 16:05:53
SZKOŁA PODSTAWOWA NR 2 IM HENRYKA SIENKIEWICZA W PRZYSZOWEJ, , 34-604, PRZYSZOWA,20.4806341,49.6603381, 70.05833333333334, 955.1166666666667, 19.041666666666668,8.808333333333334,8.641666666666667, 2026-07-23 16:05:53
SZKOŁA PODSTAWOWA IM. KRÓLOWEJ JADWIGI W WYSOKIEM, , 34-600, WYSOKIE,20.5394861,49.6552386, 58.93333333333334, 944.3333333333334, 19.625,2.775,2.358333333333333, 2026-07-23 16:05:53
SZKOŁA PODSTAWOWA NR 1 Z ODDZIAŁAMI INTEGRACYJNYMI W RACIBORZU, UL. CECYLII, 47-400, RACIBÓRZ,18.2321525,50.0999982, 67.625, 988.5916666666667, 19.608333333333334,2.375,2.033333333333333, 2026-07-23 16:05:53
SZKOŁA PODSTAWOWA IM. ŚW. STANISŁAWA KOSTKI W NOWEJ WSI SZLACHECKIEJ, UL. SZKOLNA, 32-060, NOWA WIEŚ SZLACHECKA,19.6970908,50.026212, 75.74166666666666, 979.9916666666667, 17.666666666666668,50.06666666666666,45.69166666666666, 2026-07-23 16:05:53
SZKOŁA PODSTAWOWA NR 3 IM. MARII DĄBROWSKIEJ W RESZLU, UL. MARII KONOPNICKIEJ, 11-440, RESZEL,21.1486175,54.052554, 63.59166666666667, 991.6166666666667, 21.416666666666668,3.324999999999999,3.041666666666666, 2026-07-23 16:05:53
SZKOŁA PODSTAWOWA NR 1 IM. MIKOŁAJA KOPERNIKA W WĘGORZEWIE, UL. PIONIERÓW, 11-600, WĘGORZEWO,21.7379192,54.2136049, 71.46666666666667, 991.1083333333335, 19.983333333333334,8.416666666666666,7.274999999999999, 2026-07-23 16:05:53
ZESPÓŁ SZKÓŁ GMINNYCH IM. HENRYKA SIENKIEWICZA W STANISŁAWICACH SZKOŁA PODSTAWOWA W STANISŁAWICACH, , 32-015, STANISŁAWICE,20.350192,49.982029, 49.06666666666666, 985.1999999999999, 23.141666666666666,3.975,3.5, 2026-07-23 16:05:53
TECHNIKUM NR 3 W ZESPOLE SZKÓŁ NR 3 IM. KS. PROF. JÓZEFA TISCHNERA W BOCHNI, UL. KRAKOWSKA, 32-700, BOCHNIA,20.421654,49.965508, 53.38333333333333, 982.75, 21.95,2.199999999999999,1.858333333333333, 2026-07-23 16:05:53
SZKOŁA PODSTAWOWA NR 94 W ŁODZI, UL. ZACISZE, 90-228, ŁÓDŹ-ŚRÓDMIEŚCIE,19.47642378,51.77789288, 86.96666666666665, 981.4083333333333, 16.05,3.55,3.0, 2026-07-23 16:05:53
SZKOŁA PODSTAWOWA NR 1 IM. STEFANA ŻEROMSKIEGO W ŻUROMINIE, UL. WYZWOLENIA, 09-300, ŻUROMIN,19.911175,53.071036, 58.791666666666664, 990.0749999999999, 23.90833333333333,2.141666666666666,2.133333333333333, 2026-07-23 16:05:53
TECHNIKUM IM. WINCENTEGO WITOSA W STUDZIEŃCU, , 09-200, STUDZIENIEC,19.640243,52.877888, 59.73333333333333, 993.7416666666667, 25.433333333333334,3.424999999999999,2.608333333333333, 2026-07-23 16:05:53
SZKOŁA PODSTAWOWA W SYPITKACH, , 19-314, SYPITKI,22.5643375,53.7876812, 81.41666666666667, 990.7416666666667, 18.966666666666665,2.6,2.358333333333333, 2026-07-23 16:05:53
SZKOŁA PODSTAWOWA IM. TADEUSZA KOŚCIUSZKI W ZBROSŁAWICACH, UL. WOLNOŚCI, 42-674, ZBROSŁAWICE,18.74511,50.415455, 53.85833333333333, 979.8416666666667, 21.474999999999998,2.758333333333333,2.416666666666666, 2026-07-23 16:05:53
SZKOŁA PODSTAWOWA NR 4 Z ODDZIAŁAMI SPORTOWYMI I MISTRZOSTWA SPORTOWEGO W ŻORACH, UL. BORYŃSKA, 44-240, ŻORY,18.687221,50.039349, 78.61666666666666, 977.275, 16.391666666666666,2.6999999999999997,2.408333333333333, 2026-07-23 16:05:53
SZKOŁA PODSTAWOWA NR 10 IM. MARII SKŁODOWSKIEJ-CURIE W ZDUŃSKIEJ WOLI, UL. ZIELONA, 98-220, ZDUŃSKA WOLA,18.95037552,51.60020179, 82.35833333333333, 986.4583333333334, 17.216666666666665,2.383333333333333,1.991666666666666, 2026-07-23 16:05:53
SZKOŁA PODSTAWOWA NR 4 IM.FRANCISZKA STUSKA W ORZESZU JAŚKOWICACH, UL. STUSKA, 43-180, ORZESZE,18.746978,50.145788, 69.50833333333334, 977.6666666666666, 20.258333333333333,2.625,2.625, 2026-07-23 16:05:53
SZKOŁA PODSTAWOWA NR 2 IM. JANA WYPLERA W RUDZIE ŚLĄSKIEJ, UL. GWARECKA, 41-705, RUDA ŚLĄSKA,18.89349369757705,50.26771940061391, 67.83333333333333, 981.6500000000001, 19.133333333333333,3.458333333333333,3.208333333333333, 2026-07-23 16:05:53
IV LICEUM OGÓLNOKSZTAŁCĄCE IM. ORLĄT LWOWSKICH W GLIWICACH, UL. KOZIELSKA, 44-100, GLIWICE,18.654651,50.298038, 74.75, 983.5500000000001, 18.7,3.291666666666666,2.658333333333333, 2026-07-23 16:05:53
SZKOŁA PODSTAWOWA NR 3 I. BOHATERÓW POWSTANIA WARSZAWSKIEGO Z ODDZIAŁAMI INTEGRACYJNYMI W PIASTOWIE, UL. ALEJA TYSIĄCLECIA, 05-820, PIASTÓW,20.841563186509138,52.178313490439706, 77.05, 996.0916666666667, 19.325,2.375,2.125, 2026-07-23 16:05:53
TECHNIKUM W BIECZU, UL. KAZIMIERZA WIELKIEGO, 38-340, BIECZ,21.25576524232724,49.73291457112003, 72.5, 978.3416666666667, 17.7,1.933333333333333,1.7833333333333332, 2026-07-23 16:05:53
SZKOŁA PODSTAWOWA NR 16 IM. JANUSZA KORCZAKA W RUDZIE ŚLĄSKIEJ, UL. KUKUŁCZA, 41-710, RUDA ŚLĄSKA,18.88033,50.268433, 64.83333333333333, 979.6333333333333, 20.216666666666665,3.133333333333333,2.558333333333333, 2026-07-23 16:05:53
SZKOŁA PODSTAWOWA IM.STEFANA CZARNIECKIEGO W RACŁAWICACH, , 38-323, RACŁAWICE,21.127689745801828,50.06979323518478, 60.725, 987.7166666666667, 21.633333333333336,1.883333333333333,1.708333333333333, 2026-07-23 16:05:53
SZKOŁA PODSTAWOWA IM. WŁADYSŁAWA BRONIEWSKIEGO W SZCZEJKOWICACH, UL. WIEJSKA, 44-246, SZCZEJKOWICE,18.679024,50.095496, 81.22500000000001, 978.1999999999999, 17.916666666666668,2.3666666666666663,2.225, 2026-07-23 16:05:53
SZKOŁA PODSTAWOWA W PONIATOWIE, UL. SZKOLNA, 09-300, PONIATOWO,19.864252,53.041259, 52.125, 990.6166666666667, 23.708333333333332,1.025,0.8583333333333331, 2026-07-23 16:05:53
SZKOŁA PODSTAWOWA IM. ZIEMI WARMIŃSKIEJ W PIENIĘŻNIE, UL. ORNECKA, 14-520, PIENIĘŻNO,20.1287545,54.2359313, 69.26666666666667, 996.3499999999999, 21.224999999999998,3.558333333333333,3.066666666666666, 2026-07-23 16:05:53
SZKOŁA PODSTAWOWA NR 5 IM. POLSKICH OLIMPIJCZYKÓW W ŚWIECIU, UL. WOJSKA POLSKIEGO, 86-105, ŚWIECIE,18.404523109363243,53.4022885304552, 63.85454545454545, 1003.0272727272727, 23.236363636363635,2.9909090909090903,2.527272727272727, 2026-07-23 16:05:53
TECHNIKUM NR 2 W KĘTRZYNIE, UL. POZNAŃSKA, 11-400, KĘTRZYN,21.3575617,54.0772049, 76.575, 997.8916666666665, 19.333333333333332,3.199999999999999,2.783333333333333, 2026-07-23 16:05:53
I LICEUM OGÓLNOKSZTAŁCĄCE IM. WOJCIECHA KĘTRZYŃSKIEGO W KĘTRZYNIE, UL. POWSTAŃCÓW WARSZAWY, 11-400, KĘTRZYN,21.3725281,54.0774004, 74.86666666666666, 992.9250000000001, 18.608333333333334,4.325,3.566666666666666, 2026-07-23 16:05:53
SZKOŁA PODSTAWOWA NR 3 IM. HENRYKA SIENKIEWICZA W EŁKU, UL. GRODZIEŃSKA, 19-300, EŁK,22.3468805,53.832444, 51.05833333333334, 988.7916666666666, 24.133333333333336,16.7,9.416666666666666, 2026-07-23 16:05:53
SZKOŁA PODSTAWOWA NR 13 Z ODDZIAŁAMI SPORTOWYMI I MISTRZOSTWA SPORTOWEGO IM. POLSKICH OLIMPIJCZYKÓW W ŻORACH, OS. OSIEDLE PAWLIKOWSKIEGO, 44-240, ŻORY,18.68289226,50.03250482, 85.625, 977.4333333333334, 15.958333333333334,2.408333333333333,2.016666666666666, 2026-07-23 16:05:53
PRYWATNA SZKOŁA PODSTAWOWA W KRAKOWIE, UL. PODGÓRKI TYNIECKIE, 30-398, KRAKÓW-PODGÓRZE,19.84421916,50.01213341, 69.04166666666667, 984.0916666666667, 17.591666666666665,2.4666666666666672,2.158333333333333, 2026-07-23 16:05:53
PUBLICZNA SZKOŁA PODSTAWOWA IM KARDYNAŁA STEFANA WYSZYŃSKIEGO W GŁOSKOWIE, , 08-412, GŁOSKÓW,21.693825,51.932915, 74.61666666666666, 989.125, 18.208333333333332,2.758333333333333,2.333333333333333, 2026-07-23 16:05:53
SZKOŁA PODSTAWOWA IM. HENRYKA SIENKIEWICZA W STARYM KĘBŁOWIE, , 08-430, STARY KĘBŁÓW,21.862929,51.791451, 63.916666666666664, 987.225, 19.25,2.541666666666666,2.233333333333333, 2026-07-23 16:05:53
TECHNIKUM W ŻELECHOWIE, UL. MARSZAŁKA JÓZEFA PIŁSUDSKIEGO, 08-430, ŻELECHÓW,21.898786,51.812356, 67.22500000000001, 986.9499999999999, 19.2,2.766666666666667,2.341666666666667, 2026-07-23 16:05:53
SZKOŁA PODSTAWOWA W ZESPOLE SZKÓŁ OGÓLNOKSZTAŁCĄCYCH W MAZOWIECKIM CENTRUM NEUROPSYCHIATRII W JÓZEFOWIE , UL. 3 MAJA, 05-420, JÓZEFÓW,21.234656,52.128054, 64.3, 995.3416666666667, 20.825,1.5166666666666662,1.316666666666666, 2026-07-23 16:05:53
II LICEUM OGÓLNOKSZTAŁCĄCE IM. GEN. GUSTAWA ORLICZ-DRESZERA W CHEŁMIE, UL. SZPITALNA, 22-100, CHEŁM,23.45593021,51.14267385, 79.34545454545454, 985.3727272727273, 16.39090909090909,3.618181818181817,3.0, 2026-07-23 16:05:53
SZKOŁA PODSTAWOWA IM.J.CHEŁMOŃSKIEGO W KUKLÓWCE RADZIEJOWICKIEJ, UL. SZKOLNA, 96-325, KUKLÓWKA RADZIEJOWICKA,20.59054414,52.04408065, 75.44166666666666, 994.275, 19.566666666666666,2.758333333333333,2.416666666666666, 2026-07-23 16:05:53
SALEZJAŃSKA SZKOŁA PODSTAWOWA Z ODDZIAŁAMI INTEGRACYJNYMI W SALEZJAŃSKIM OŚRODKU SZKOLNO-WYCHOWAWCZYM W TARNOWSKICH GÓRACH, UL. JANA ŚNIADECKIEGO, 42-604, TARNOWSKIE GÓRY,18.80622755,50.43256357, 73.10000000000001, 971.8083333333334, 19.358333333333334,2.666666666666666,2.291666666666666, 2026-07-23 16:05:53
SZKOŁA PODSTAWOWA NR 1 IM PIERWSZEGO MARSZAŁKA POLSKI JÓZEFA PIŁSUDSKIEGO W SULEJÓWKU, UL. IDZIKOWSKIEGO, 05-070, SULEJÓWEK,21.26694575396344,52.24433487687851, 55.00833333333333, 993.5916666666667, 21.625,2.016666666666666,1.666666666666666, 2026-07-23 16:05:53
PUBLICZNA SZKOŁA PODSTAWOWA IM. JANUSZA KORCZAKA W GOŹDZIE, UL. STAROWIEJSKA, 26-634, GÓZD,21.378914500000004,51.376315985021016, 85.78333333333335, 986.3083333333334, 16.2,2.1,1.758333333333333, 2026-07-23 16:05:53
SZKOŁA PODSTAWOWA NR 4 IM. JANA PAWŁA II Z ODDZIAŁAMI PRZEDSZKOLNYMI I ODDZIAŁAMI SPORTOWYMI W PRUSZKOWIE , UL. HUBALA, 05-800, PRUSZKÓW,20.81122021534552,52.16432045510862, 75.325, 996.8416666666667, 19.900000000000002,2.808333333333333,2.391666666666666, 2026-07-23 16:05:53
NIEPUBLICZNA SZKOŁA PODSTAWOWA WIELICZKA MONTESSORI SCHOOL W WIELICKIEJ SZKOLE MONTESSORI, UL. JANA MIKOŁAJA DANIŁOWICZA, 32-020, WIELICZKA,20.05646002,49.98203058, 62.84166666666667, 979.1083333333332, 20.191666666666666,2.341666666666667,2.333333333333333, 2026-07-23 16:05:53
PUBLICZNA SZKOŁA PODSTAWOWA W OBRAZOWIE, , 27-641, OBRAZÓW,21.6579632,50.69068702480904, 66.325, 983.5333333333333, 19.525000000000002,3.066666666666666,2.533333333333333, 2026-07-23 16:05:53
SZKOŁA PODSTAWOWA W BRZOZOWIE, UL. MIODOWA, 86-200, BRZOZOWO,18.4238755,53.314175, 79.64166666666667, 995.3583333333332, 18.166666666666668,2.675,2.225, 2026-07-23 16:05:53
SZKOŁA PODSTAWOWA NR 199 IM. JULIANA TUWIMA W ŁODZI, UL. JÓZEFA ELSNERA, 92-504, ŁÓDŹ-WIDZEW,19.531114643683964,51.75675184434886, 84.0, 981.725, 15.891666666666666,5.716666666666666,4.533333333333333, 2026-07-23 16:05:53
SZKOŁA PODSTAWOWA IM. KS. KARD. STEFANA WYSZYŃSKIEGO W BORZYMINIE, , 87-500, BORZYMIN,19.3345342,53.0561291, 48.519999999999996, 990.01, 24.93,3.11,2.69, 2026-07-23 16:05:53
SZKOŁA PODSTAWOWA IM. TADEUSZA KOŚCIUSZKI W ŁĘTOWICACH, , 33-121, ŁĘTOWICE,20.845262,49.994632, 57.35, 985.5083333333333, 22.5,2.449999999999999,2.449999999999999, 2026-07-23 16:05:53
SZKOŁA PODSTAWOWA IM. PIOTRA ŚCIEGIENNEGO W BĘCZKOWIE, UL. JANA PAWŁA II, 26-008, BĘCZKÓW,20.80287618,50.87879103, 68.43333333333334, 974.0833333333334, 18.941666666666666,4.1,3.591666666666667, 2026-07-23 16:05:53
SZKOŁA PODSTAWOWA IM.KSIĘCIA KARDYNAŁA ADAMA STEFANA SAPIEHY W BYSINIE, , 32-400, BYSINA,19.8876673,49.8279242, 60.583333333333336, 969.2166666666667, 19.416666666666668,1.775,1.4916666666666671, 2026-07-23 16:05:53
SZKOŁA PODSTAWOWA IM. JANA KOCHANOWSKIEGO W BĘCZARCE, , 32-444, BĘCZARKA,19.8615647,49.8750803, 62.48333333333333, 971.4250000000001, 19.150000000000002,1.983333333333333,1.7833333333333332, 2026-07-23 16:05:53
TECHNIKUM W NAKLE ŚLĄSKIM, UL. GUSTAWA MORCINKA, 42-620, NAKŁO ŚLĄSKIE,18.899961,50.436198, 85.25, 976.1999999999999, 16.516666666666666,2.75,2.475, 2026-07-23 16:05:53
SZKOŁA PODSTAWOWA NR 8 IM. KRZYSZTOFA KAMILA BACZYŃSKIEGO W TARNOWIE, UL. BITWY POD STUDZIANKAMI, 33-100, TARNÓW,21.00415196,50.01968672, 56.46666666666667, 982.2333333333332, 21.308333333333334,3.4666666666666672,2.9916666666666663, 2026-07-23 16:05:53
SZKOŁA PODSTAWOWA IM.TADEUSZA KOŚCIUSZKI W GŁOGOCZOWIE, , 32-444, GŁOGOCZÓW,19.8764713,49.8949648, 63.21666666666667, 981.2166666666667, 18.916666666666668,2.9499999999999997,2.433333333333333, 2026-07-23 16:05:53
SZKOŁA PODSTAWOWA IM. POWSTAŃCÓW STYCZNIOWYCH W DWIKOZACH, UL. SPÓŁDZIELCZA, 27-620, DWIKOZY,21.78213112698172,50.73763072488988, 58.625, 990.15, 21.708333333333332,2.383333333333333,2.025, 2026-07-23 16:05:53
SZKOŁA PODSTAWOWA IM JANA KOCHANOWSKIEGO W RACIECHOWICACH, , 32-415, RACIECHOWICE,20.1425376,49.8447436, 64.71666666666665, 973.3666666666667, 20.916666666666668,2.516666666666666,2.291666666666666, 2026-07-23 16:05:53
SZKOŁA PODSTAWOWA IM. 100-LECIA RUCHU LUDOWEGO W WIERZCHOSŁAWICACH, , 33-122, WIERZCHOSŁAWICE,20.8578193,50.02129351, 54.166666666666664, 985.7666666666668, 22.633333333333336,2.8666666666666663,2.4666666666666672, 2026-07-23 16:05:53
SZKOŁA PODSTAWOWA NR 2 IM. 12 PUŁKU PIECHOTY W SPYTKOWICACH, , 34-745, SPYTKOWICE,19.8620555,49.5891356, 69.375, 951.2333333333332, 19.108333333333334,4.491666666666667,3.9, 2026-07-23 16:05:53
NIEPUBLICZNA SZKOŁA PODSTAWOWA MONTESSORI W WIELICZCE, UL. JASNA, 32-020, WIELICZKA,20.04131557116481,49.98142573025661, 65.625, 980.8249999999999, 20.308333333333334,1.583333333333333,1.158333333333333, 2026-07-23 16:05:53
TECHNIKUM IM. KAROLA WOJTYŁY W SUŁKOWICACH, UL. SZKOLNA, 32-440, SUŁKOWICE,19.79959,49.83879, 65.025, 977.7583333333333, 18.391666666666666,2.058333333333333,1.883333333333333, 2026-07-23 16:05:53
SZKOŁA PODSTAWOWA IM. KSIĘCIA JÓZEFA PONIATOWSKIEGO W MNIKOWIE, , 32-084, MNIKÓW,19.7203981,50.0603945, 75.39, 982.22, 17.27,3.159999999999999,2.76, 2026-07-23 16:05:53
RZEMIEŚLNICZA BRANŻOWA SZKOŁA I STOPNIA W TARNOWIE, PL. DWORCOWY, 33-100, TARNÓW,20.97230288,50.00592873, 46.44166666666666, 984.9333333333334, 24.933333333333334,2.391666666666666,2.074999999999999, 2026-07-23 16:05:53
PUBLICZNA SZKOŁA PODSTAWOWA NR4 IM. EUGENIUSZA KWIATKOWSKIEGO W STALOWEJ WOLI, UL. NIEZŁOMNYCH, 37-450, STALOWA WOLA,22.049257,50.566117, 55.19166666666666, 988.8416666666667, 21.775000000000002,2.375,1.966666666666666, 2026-07-23 16:05:53
PUBLICZNA SZKOŁA PODSTAWOWA NR 30 IM. KRÓLOWEJ JADWIGI W RADOMIU, UL. PIASTOWSKA, 26-600, RADOM,21.15801836,51.43197508, 74.44166666666666, 989.9, 19.341666666666665,1.7833333333333332,1.566666666666666, 2026-07-23 16:05:53
PUBLICZNA SZKOŁA PODSTAWOWA IM. 100. ROCZNICY ODZYSKANIA NIEPODLEGŁOŚCI PRZEZ POLSKĘ W KORZECKU, , 26-060, KORZECKO,20.40868672,50.80193767, 77.60000000000001, 979.35, 18.141666666666666,1.941666666666666,1.65, 2026-07-23 16:05:53
SZKOŁA PODSTAWOWA IM. GENERAŁA STANISŁAWA MACZKA W BLIŻYNIE, UL. PIASKOWA, 26-120, BLIŻYN,20.7611656,51.10539138, 75.45, 976.4916666666667, 18.45,2.3,1.941666666666666, 2026-07-23 16:05:53
SZKOŁA PODSTAWOWA W OKSIE, UL. PL. M. REJA, 28-363, OKSA,20.10227008,50.72821359, 57.199999999999996, 978.3583333333332, 22.09166666666667,2.058333333333333,1.775, 2026-07-23 16:05:53
III LICEUM OGÓLNOKSZTAŁCĄCE W ZESPOLE SZKÓŁ NR 1 W PSZCZYNIE , UL. KAZIMIERZA WIELKIEGO, 43-200, PSZCZYNA,18.945466,49.965741, 76.02499999999999, 980.0583333333334, 17.7,2.074999999999999,1.733333333333333, 2026-07-23 16:05:53
SZKOŁA PODSTAWOWA W JELENIOWIE, , 26-006, JELENIÓW,21.116233057672765,50.84449324956324, 81.25, 973.275, 16.849999999999998,5.574999999999999,3.9499999999999993, 2026-07-23 16:05:53
SZKOŁA PODSTAWOWA W ŁYSAKOWIE, , 28-300, ŁYSAKÓW DRUGI,20.31178517,50.59252463, 73.55833333333334, 977.9583333333334, 18.583333333333332,4.333333333333333,3.683333333333333, 2026-07-23 16:05:53
SPOŁECZNA SZKOŁA PODSTAWOWA NR 1 IM. KS.PROF. JÓZEFA TISCHNERA W TARNOWIE, UL. GUMNISKA, 33-100, TARNÓW,21.00131621,50.00814381, 59.31666666666666, 984.8499999999999, 21.191666666666666,2.808333333333333,2.449999999999999, 2026-07-23 16:05:53
SZKOŁA PODSTAWOWA IM. GEN. STANISŁAWA SKALSKIEGO W POLICHNIE, , 26-060, POLICHNO,20.3964092,50.82155974, 76.075, 979.2916666666666, 18.316666666666666,2.058333333333333,1.8, 2026-07-23 16:05:53
TECHNIKUM W RACIĄŻU, UL. KILIŃSKIEGO, 09-140, RACIĄŻ,20.127731,52.778712, 70.08333333333333, 992.7166666666667, 20.26666666666667,2.074999999999999,1.8499999999999992, 2026-07-23 16:05:53
PUBLICZNA SZKOŁA PODSTAWOWA IM.HENRYKA SIENKIEWICZA W MYŚLISZEWICACH, , 26-630, MYŚLISZEWICE,21.2905313,51.413341302261024, 77.73333333333333, 989.6, 18.45,12.25,12.716666666666669, 2026-07-23 16:05:53
SZKOŁA PODSTAWOWA NR 6 IM. DRA WŁADYSŁAWA GĘBIKA Z ODDZIAŁAMI INTEGRACYJNYMI W KWIDZYNIE, UL. GRUNWALDZKA, 82-500, KWIDZYN,18.932667,53.723949, 71.80833333333334, 998.0916666666667, 21.091666666666665,2.15,1.958333333333333, 2026-07-23 16:05:53
SZKOŁA PODSTAWOWA W BRZEŚCIU, , 28-400, BRZEŚCIE,20.54586641,50.5470206, 70.45833333333333, 984.4416666666666, 18.900000000000002,2.483333333333333,2.208333333333333, 2026-07-23 16:05:53
SZKOŁA PODSTAWOWA W LUBOWIDZU, UL. JANA PAWŁA II, 09-304, LUBOWIDZ,19.842984,53.120566, 67.49166666666666, 991.1166666666667, 21.133333333333333,1.566666666666666,1.291666666666666, 2026-07-23 16:05:53
NIEPUBLICZNA SZKOŁA PODSTAWOWA W NIWCE, , 33-130, NIWKA,20.853454,50.056594, 54.028571428571425, 987.7857142857143, 23.357142857142858,2.171428571428571,1.9, 2026-07-23 16:05:53
TECHNIKUM NR 2 W CZĘSTOCHOWIE, UL. WARSZAWSKA, 42-200, CZĘSTOCHOWA,19.1485028,50.7931394, 67.77499999999999, 980.1750000000001, 19.45,2.758333333333333,2.308333333333333, 2026-07-23 16:05:53
SZKOŁA PODSTAWOWA IM. ORŁA BIAŁEGO W SZCZYTNEJ, UL. KOŚCIELNA, 57-330, SZCZYTNA,16.44633002,50.41610314, 71.72, 956.93, 17.8,1.119999999999999,0.919999999999999, 2026-07-23 16:05:53
I LICEUM OGÓLNOKSZTAŁCĄCE IM. BOLESŁAWA CHROBREGO W KŁODZKU, UL. WOJSKA POLSKIEGO, 57-300, KŁODZKO,16.651149,50.4373, 53.40833333333333, 975.9499999999999, 21.391666666666666,2.733333333333333,2.375, 2026-07-23 16:05:53
SZKOŁA PODSTAWOWA W BIENIOWICACH, , 59-216, BIENIOWICE,16.256564,51.258614, 63.541666666666664, 998.1999999999999, 20.791666666666668,2.516666666666667,2.133333333333333, 2026-07-23 16:05:53
SZKOŁA PODSTAWOWA IM. ŚW. JADWIGI ŚLĄSKIEJ W ŻERNIKACH WROCŁAWSKICH, UL. KOLEJOWA, 55-010, ŻERNIKI WROCŁAWSKIE,17.0609105,51.0305737, 76.45384615384616, 995.3461538461538, 17.615384615384617,2.9923076923076923,2.538461538461538, 2026-07-23 16:05:53
SZKOŁA PODSTAWOWA NR 4 Z ODDZIAŁAMI INTEGRACYJNYMI W BIELAWIE, UL. LUDWIKA WARYŃSKIEGO, 58-260, BIELAWA,16.6008348,50.6662832, 57.98333333333333, 967.125, 19.308333333333334,2.291666666666666,1.875, 2026-07-23 16:05:53
SZKOŁA PODSTAWOWA IM. JANA PAWŁA II W GRODZISZCZU, , 58-112, GRODZISZCZE,16.560664,50.798212, 57.11666666666667, 983.0666666666666, 20.2,4.316666666666666,3.716666666666667, 2026-07-23 16:05:53
BRANŻOWA SZKOŁA I STOPNIA NR 6 W ZESPOLE SZKÓŁ PRZEMYSŁU SPOŻYWCZEGO IM. POWSTAŃCÓW WIELKOPOLSKICH W ŁODZI, UL. FRANCISZKAŃSKA, 91-845, ŁÓDŹ-BAŁUTY,19.421884,51.7848081, 84.22500000000001, 982.4250000000001, 16.608333333333334,3.258333333333333,2.691666666666666, 2026-07-23 16:05:53
TECHNIKUM NR 1 W ZESPOLE SZKÓŁ NR 1 IM. STANISŁAWA STASZICA W BOCHNI, UL. EDWARDA WINDAKIEWICZA, 32-700, BOCHNIA,20.416325,49.966639, 60.458333333333336, 980.4583333333334, 22.058333333333334,2.716666666666667,2.408333333333333, 2026-07-23 16:05:53
SZKOŁA PODSTAWOWA IM. M. KOPERNIKA W KOŚCIELCU, , 32-100, KOŚCIELEC,20.3906858,50.2001419, 69.8, 985.8333333333334, 18.416666666666668,3.4,3.125, 2026-07-23 16:05:53
SZKOŁA PODSTAWOWA IM. MARII KONOPNICKIEJ W LIPINACH, , 92-701, LIPINY,19.67220915,51.80665653, 79.11666666666666, 979.6916666666666, 17.266666666666666,4.233333333333333,3.516666666666667, 2026-07-23 16:05:53
I LICEUM OGÓLNOKSZTAŁCĄCE IM. MARCINA KROMERA W GORLICACH, UL. MARCINA KROMERA, 38-300, GORLICE,21.155748,49.659518, 73.35000000000001, 974.0833333333334, 17.033333333333335,1.7833333333333332,1.583333333333333, 2026-07-23 16:05:53
SZKOŁA PODSTAWOWA IM. IGNACEGO ŁUKASIEWICZA W KOBYLANCE, , 38-303, KOBYLANKA,21.222151,49.669007, 73.18333333333334, 976.15, 17.333333333333332,1.583333333333333,1.325, 2026-07-23 16:05:53
SZKOŁA PODSTAWOWA IM.ŚWIĘTEJ KINGI W KORCZYNIE, , 38-340, KORCZYNA,21.255204,49.702509, 77.59166666666667, 972.8499999999999, 16.591666666666665,3.275,2.775, 2026-07-23 16:05:53
TECHNIKUM W GOŁOTCZYŹNIE, UL. CIECHANOWSKA, 06-430, GOŁOTCZYZNA,20.68880627301113,52.79264333773238, 73.97500000000001, 992.1750000000001, 20.041666666666668,1.9083333333333328,1.666666666666666, 2026-07-23 16:05:53
SZKOŁA PODSTAWOWA IM. WŁADYSŁAWA JÓŹWICKIEGO W GÓRZNIE , UL. DŁUGA, 08-404, GÓRZNO,21.7059907,51.84700102762625, 79.25, 988.15, 17.408333333333335,3.025,2.475, 2026-07-23 16:05:53
SZKOŁA PODSTAWOWA NR 2 Z ODDZIAŁAMI INTEGRACYJNYMI IM. ŻOŁNIERZY A.K. II REJONU CELKÓW W MARKACH, UL. SZKOLNA, 05-270, MARKI,21.10374427116481,52.31729535665526, 64.40833333333333, 995.4916666666667, 21.0,2.25,1.991666666666666, 2026-07-23 16:05:53
SZKOŁA PODSTAWOWA IM.KAWALERÓW ORDERU UŚMIECHU W SIEROSŁAWICACH, , 32-120, SIEROSŁAWICE,20.461954,50.141099, 70.45, 986.5833333333334, 18.066666666666666,4.466666666666667,3.9499999999999993, 2026-07-23 16:05:53
SZKOŁA PODSTAWOWA IM.ŚW.JANA PAWŁA II W ZAWADACH, UL. KOŚCIUSZKI, 16-075, ZAWADY,22.66793745,53.15651651, 62.85454545454545, 995.0636363636364, 21.827272727272728,6.581818181818182,5.981818181818181, 2026-07-23 16:05:53
SZKOŁA PODSTAWOWA NR 2 IM. KRÓLOWEJ JADWIGI W CZECHOWICACH-DZIEDZICACH, UL. WĘGLOWA, 43-502, CZECHOWICE-DZIEDZICE,19.0071238,49.9283149, 84.28333333333333, 980.9166666666666, 17.366666666666667,3.158333333333333,2.6166666666666663, 2026-07-23 16:05:53
PUBLICZNA SZKOŁA PODSTAWOWA NR 1 Z ODDZIAŁAMI DWUJĘZYCZNYMI W MOGIELNICY, UL. NOWOMIEJSKA, 05-640, MOGIELNICA,20.72027,51.6909326, 70.86666666666666, 989.5166666666668, 20.216666666666665,2.225,1.883333333333333, 2026-07-23 16:05:53
PUBLICZNA SZKOŁA PODSTAWOWA IM.T. KOŚCIUSZKI W GŁOWACZOWIE, UL. WARECKA, 26-903, GŁOWACZÓW,21.3187284,51.6220175, 83.94166666666666, 991.9583333333334, 16.691666666666666,2.225,1.991666666666666, 2026-07-23 16:05:53
SZKOŁA PODSTAWOWA SPECJALNA NR 150 W KRAKOWIE, AL. ALEJA ADOLFA DYGASIŃSKIEGO, 30-820, KRAKÓW-PODGÓRZE,19.98983357116481,50.02147308570759, 60.53333333333333, 986.3249999999999, 17.808333333333334,12.266666666666666,9.5, 2026-07-23 16:05:53
PUBLICZNA SZKOŁA PODSTAWOWA IM. JÓZEFA BRANDTA W OROŃSKU, UL. SZKOLNA, 26-505, OROŃSKO,20.98980054,51.315665, 86.05, 985.275, 17.016666666666666,2.058333333333333,1.7000000000000002, 2026-07-23 16:05:53
PUBLICZNA SZKOŁA PODSTAWOWA IM. BATALIONÓW CHŁOPSKICH W KLECZANOWIE, , 27-641, KLECZANÓW,21.57103098,50.71737244, 65.34166666666667, 978.7416666666667, 19.349999999999998,2.8416666666666672,2.533333333333333, 2026-07-23 16:05:53
SZKOŁA PODSTAWOWA IM. BOHATERÓW WESTERPLATTE W ŁĘKAWICY, , 33-156, ŁĘKAWICA,19.60597,49.84172, 69.625, 980.1750000000001, 19.425,2.375,2.091666666666667, 2026-07-23 16:05:53
SZKOŁA PODSTAWOWA W STAROCHĘCINACH, , 26-060, STAROCHĘCINY,20.48081695,50.77685204, 77.76666666666667, 981.4833333333332, 18.716666666666665,2.166666666666666,1.875, 2026-07-23 16:05:53
SZKOŁA PODSTAWOWA NR 6 IM. KS. JANA TWARDOWSKIEGO W PSZCZYNIE, UL. KSIĘŻYCOWA, 43-200, PSZCZYNA,18.936162,49.965097, 76.14166666666667, 982.7666666666668, 17.39166666666667,1.958333333333333,1.7416666666666671, 2026-07-23 16:05:53
SZKOŁA PODSTAWOWA IM.KAZIMIERZA PUŁASKIEGO W JADAMWOLI, , 34-606, JADAMWOLA,20.51122243,49.58092142, 60.458333333333336, 961.6833333333334, 20.708333333333332,2.033333333333333,1.791666666666666, 2026-07-23 16:05:53
SZKOŁA PODSTAWOWA NR 2 IM. MARII KONOPNICKIEJ W ŻYRARDOWIE, UL. GABRIELA NARUTOWICZA, 96-300, ŻYRARDÓW,20.43801027,52.05842119, 66.54166666666667, 993.0916666666667, 21.691666666666666,2.2416666666666663,2.2416666666666663, 2026-07-23 16:05:53
I LICEUM OGÓLNOKSZTAŁCĄCE IM. ZYGMUNTA KRASIŃSKIEGO W CIECHANOWIE, UL. 17 STYCZNIA, 06-400, CIECHANÓW,20.59878057,52.88501004, 57.69166666666666, 990.8166666666666, 22.958333333333332,1.9,1.708333333333333, 2026-07-23 16:05:53
SZKOŁA PODSTAWOWA W ŁUKOWEJ, , 26-060, ŁUKOWA,20.53811566,50.72732867, 75.64999999999999, 978.4250000000001, 17.333333333333332,2.15,1.8499999999999992, 2026-07-23 16:05:53
SZKOŁA PODSTAWOWA W WOLI KORYCKIEJ GÓRNEJ, , 08-455, WOLA KORYCKA GÓRNA,21.754932828835187,51.73577039586474, 73.59166666666667, 988.65, 18.141666666666666,2.175,1.875, 2026-07-23 16:05:53
SZKOŁA PODSTAWOWA W WOLICY, UL. SZKOLNA, 26-060, WOLICA,20.47387736,50.75410087, 74.38333333333334, 981.0166666666668, 18.599999999999998,2.683333333333333,2.3, 2026-07-23 16:05:53
SZKOŁA PODSTAWOWA IM. JANA PAWŁA II W ZBUCZYNIE, UL. JANA PAWŁA II, 08-106, ZBUCZYN,22.44061361,52.08688669, 71.01666666666667, 986.875, 20.108333333333334,3.625,3.191666666666666, 2026-07-23 16:05:53
TECHNIKUM NR 2 IM. EUGENIUSZA KWIATKOWSKIEGO W STARACHOWICACH, UL. 1 MAJA, 27-200, STARACHOWICE,21.06313317,51.05452968, 67.77499999999999, 978.0333333333333, 19.441666666666666,2.3,2.058333333333333, 2026-07-23 16:05:53
PUBLICZNA SZKOŁA PODSTAWOWA IM. JANA KOCHANOWSKIEGO W POLANACH, , 26-680, POLANY,21.114656,51.2261, 80.00833333333334, 984.4416666666666, 17.458333333333332,1.5583333333333331,1.5583333333333331, 2026-07-23 16:05:53
SZKOŁA PODSTAWOWA W ZBELUTCE, , 26-025, ZBELUTKA-STARA WIEŚ,21.0993345,50.7310922, 81.675, 966.1083333333332, 16.35833333333333,2.875,2.416666666666666, 2026-07-23 16:05:53
SZKOŁA PODSTAWOWA IM. STEFANA KARDYNAŁA WYSZYŃSKIEGO W PIERZCHNICY , UL. KARDYNAŁA STEFANA WYSZYŃSKIEGO, 26-015, PIERZCHNICA,20.74729757,50.6959636, 79.80833333333334, 975.1583333333333, 16.341666666666665,1.7666666666666662,1.491666666666666, 2026-07-23 16:05:53
SZKOŁA PODSTAWOWA W BRDOWIE, UL. MICKIEWICZA, 62-620, BRDÓW,18.7293986,52.3533225, 81.93333333333334, 992.3000000000001, 17.283333333333335,2.125,1.8499999999999992, 2026-07-23 16:05:53
SZKOŁA PODSTAWOWA Z ODDZIAŁAMI INTEGRACYJNYMI NR 6 IM. SZARYCH SZEREGÓW W GRODZISKU MAZOWIECKIM, UL. SPORTOWA, 05-825, GRODZISK MAZOWIECKI,20.6192335,52.0987683, 79.8, 995.25, 18.575,3.266666666666667,2.8, 2026-07-23 16:05:53
SZKOŁA PODSTAWOWA IM. 11 LISTOPADA W ŻÓŁWINIE, UL. SZKOLNA, 05-807, ŻÓŁWIN,20.7249857,52.09761779588044, 86.84166666666665, 995.9083333333333, 17.816666666666666,2.358333333333333,2.083333333333333, 2026-07-23 16:05:53
PUBLICZNA SZKOŁA PODSTAWOWA IM. JANA PAWŁA II W WOLI TACZOWSKIEJ, , 26-652, WOLA TACZOWSKA,21.04512254,51.44935931, 76.43333333333334, 985.6916666666666, 19.55,1.349999999999999,1.349999999999999, 2026-07-23 16:05:53
LICEUM OGÓLNOKSZTAŁCĄCE IM. STEFANA ŻEROMSKIEGO W ŻYRARDOWIE, UL. JANINY JADWIGI KACPERSKIEJ, 96-300, ŻYRARDÓW,20.44495564,52.0675436, 72.89999999999999, 995.5500000000001, 19.75,3.0,2.75, 2026-07-23 16:05:53
SZKOŁA PODSTAWOWA W ŚCINAWIE POLSKIEJ, , 55-200, ŚCINAWA POLSKA,17.33660972,50.93346737, 66.21666666666667, 994.5416666666666, 19.258333333333333,0.8833333333333331,0.775, 2026-07-23 16:05:53
SZKOŁA PODSTAWOWA W ŚCINAWCE DOLNEJ, , 57-410, ŚCINAWKA DOLNA,16.5360171,50.4966472, 61.68333333333334, 975.9083333333333, 20.616666666666667,1.933333333333333,1.691666666666666, 2026-07-23 16:05:53
I LICEUM OGÓLNOKSZTAŁCĄCE IM. ADAMA MICKIEWICZA W ŁAPACH, UL. BOHATERÓW WESTERPLATTE, 18-100, ŁAPY,22.87657971,52.98984475, 60.041666666666664, 991.0500000000001, 20.408333333333335,6.691666666666666,5.6, 2026-07-23 16:05:53
SZKOŁA PODSTAWOWA W WĘGRACH, UL. SZKOLNA, 55-020, WĘGRY,17.0374566,50.92746209, 70.45833333333333, 993.9250000000001, 18.116666666666667,1.75,1.541666666666666, 2026-07-23 16:05:53
PUBLICZNA SZKOŁA PODSTAWOWA IM. MIKOŁAJA KOPERNIKA W BIENIĘDZICACH, , 26-625, BIENIĘDZICE,20.92852467,51.41165831, 80.08, 986.3100000000001, 19.05,1.92,1.61, 2026-07-23 16:05:53
SAMORZĄDOWA SZKOŁA PODSTAWOWA IM. WOJSKA POLSKIEGO W WODZISŁAWIU, UL. SZKOLNA, 28-330, WODZISŁAW,20.18925053,50.51810713, 60.583333333333336, 980.125, 20.591666666666665,3.091666666666667,2.783333333333333, 2026-07-23 16:05:53
TECHNIKUM W JASIEŃCU, UL. CZERSKA, 05-600, JASIENIEC,20.94031755,51.82104731, 77.74166666666666, 991.6833333333334, 18.341666666666665,1.7000000000000002,1.416666666666666, 2026-07-23 16:05:53
LICEUM OGÓLNOKSZTAŁCĄCE W ZESPOLE SZKÓŁ DRZEWNYCH I LEŚNYCH IM. JANA KOCHANOWSKIEGO W GARBATCE - LETNISKU, UL. HANKI LEWANDOWICZ, 26-930, GARBATKA-LETNISKO,21.62967267,51.49346798, 89.19166666666666, 989.775, 17.908333333333335,1.741666666666666,1.441666666666666, 2026-07-23 16:05:53
PUBLICZNA SZKOŁA PODSTAWOWA IM. JANA OLRYCHA SZANIECKIEGO W SZAŃCU, , 28-100, SZANIEC,20.69198509758868,50.51627384074623, 67.2, 978.8666666666667, 18.216666666666665,1.95,1.691666666666666, 2026-07-23 16:05:53
SZKOŁA PODSTAWOWA W ZBOROWIE, UL. ZWIERZYNIEC, 28-131, ZBORÓW,20.711351,50.51339044, 64.50833333333334, 985.2333333333332, 19.058333333333334,1.358333333333333,1.141666666666666, 2026-07-23 16:05:53
PUBLICZNA SZKOŁA PODSTAWOWA IM. POR. JÓZEFA MĄCZKI W ZALESZANACH, UL. SANDOMIERSKA, 37-415, ZALESZANY,21.88785883,50.64803753, 52.542857142857144, 990.1357142857142, 23.935714285714287,2.5785714285714283,2.1428571428571432, 2026-07-23 16:05:53
SZKOŁA PODSTAWOWA W SOLCU-ZDROJU, UL. 1 MAJA, 28-131, SOLEC-ZDRÓJ,20.8893586,50.37082674, 63.458333333333336, 986.9083333333333, 18.8,1.7833333333333332,1.5750000000000002, 2026-07-23 16:05:53
I LICEUM OGÓLNOKSZTAŁCĄCE W NOWEJ SARZYNIE, UL. KOMISJI EDUKACJI NARODOWEJ, 37-310, NOWA SARZYNA,22.34167945,50.31921557, 83.125, 990.4083333333333, 16.883333333333333,3.125,2.908333333333333, 2026-07-23 16:05:53
SZKOŁA PODSTAWOWA W SZRENIAWIE, , 32-075, SZRENIAWA,19.8690283,50.3768057, 69.54166666666667, 974.525, 19.5,1.966666666666666,1.716666666666666, 2026-07-23 16:05:53
SZKOŁA PODSTAWOWA IM. WANDY RUTKIEWICZ W JANOWICACH WIELKICH, UL. PARTYZANTÓW, 58-520, JANOWICE WIELKIE,15.925671,50.88188, 84.425, 970.625, 15.775,4.025,3.5, 2026-07-23 16:05:53
SZKOŁA PODSTAWOWA W PTASZKOWIE, , 58-400, PTASZKÓW,16.0415642,50.7927672, 74.00833333333334, 959.8333333333334, 16.724999999999998,3.475,2.9499999999999997, 2026-07-23 16:05:53
SZKOŁA PODSTAWOWA IM. ŚW. WOJCIECHA WE WŁODOWICACH, , 57-400, WŁODOWICE,16.4776033,50.575772, 55.75833333333333, 968.3833333333333, 20.675,2.116666666666666,1.8, 2026-07-23 16:05:53
PUBLICZNA SZKOŁA PODSTAWOWA W LEWINIE KŁODZKIM, UL. KOŚCIELNA, 57-343, LEWIN KŁODZKI,16.2909777,50.4056168, 79.04166666666667, 958.9, 15.525,1.8,1.616666666666666, 2026-07-23 16:05:53
SZKOŁA PODSTAWOWA NR 3 IM. JANA PAWŁA II W SYCOWIE, UL. KOŚCIELNA, 56-500, SYCÓW,17.72017,51.3071, 75.90833333333333, 989.0749999999999, 17.716666666666665,3.116666666666666,2.675, 2026-07-23 16:05:53
SZKOŁA PODSTAWOWA IM. BOLESŁAWA CHROBREGO W ŻMIGRODZIE, UL. HENRYKA SIENKIEWICZA, 55-140, ŻMIGRÓD,16.9084728,51.4700924, 78.74166666666666, 999.375, 17.133333333333333,2.091666666666667,1.808333333333333, 2026-07-23 16:05:53
SPOŁECZNA SZKOŁA PODSTAWOWA W ŚWIDNICY, UL. ADAMA MICKIEWICZA, 58-100, ŚWIDNICA,16.677532,51.0740481, 59.14166666666667, 987.0583333333334, 19.691666666666666,2.916666666666666,2.55, 2026-07-23 16:05:53
SZKOŁA PODSTAWOWA W KRZESZOWIE, UL. BETLEJEMSKA, 58-400, KRZESZÓW,16.0646514,50.7333391, 72.075, 957.4333333333334, 16.775000000000002,2.6166666666666663,2.266666666666666, 2026-07-23 16:05:53
SZKOŁA PODSTAWOWA W MOKRZESZOWIE, , 58-160, MOKRZESZÓW,16.371249,50.8485349, 65.50833333333334, 976.7666666666665, 18.691666666666666,4.208333333333333,3.6, 2026-07-23 16:05:53
SZKOŁA PODSTAWOWA IM. ADAMA MICKIEWICZA W PĘGOWIE, UL. GŁÓWNA, 55-120, PĘGÓW,16.9325607,51.2463277, 65.53333333333333, 995.1416666666668, 20.01666666666667,2.591666666666667,2.199999999999999, 2026-07-23 16:05:53
TECHNIKUM W BOLKOWIE, UL. NIEPODLEGŁOŚCI, 59-420, BOLKÓW,16.1055099,50.92060569, 65.26666666666667, 973.1, 18.224999999999998,2.116666666666666,1.775, 2026-07-23 16:05:53
SZKOŁA PODSTAWOWA NR 4 IM.PROF. ROMANA PODOSKIEGO W OLEŚNICY, UL. IGNACEGO PADEREWSKIEGO, 56-400, OLEŚNICA,17.3883791,51.2047183, 75.26666666666667, 991.6833333333334, 18.099999999999998,3.591666666666667,3.266666666666667, 2026-07-23 16:05:53
SZKOŁA PODSTAWOWA W PÓŁWIESKU MAŁYM, , 87-337, PÓŁWIESK MAŁY,19.2209039,53.1414488, 71.95, 992.5, 19.816666666666666,3.1,2.666666666666666, 2026-07-23 16:05:53
TECHNIKUM NR 9 W TORUNIU, UL. STEFANA BATOREGO, 87-100, TORUŃ,18.6208871,53.0272793, 74.525, 1001.1666666666666, 19.474999999999998,0.516666666666666,0.383333333333333, 2026-07-23 16:05:53
SZKOŁA PODSTAWOWA W RUDNIE W ZESPOLE KSZTAŁCENIA I WYCHOWANIA W RUDNIE, UL. SZKOLNA, 83-121, RUDNO,18.762284,53.934177, 78.27499999999999, 999.2583333333333, 18.991666666666667,2.875,2.6166666666666663, 2026-07-23 16:05:53
SZKOŁA PODSTAWOWA W RACŁAWICZKACH, UL. SZKOLNA, 47-370, RACŁAWICZKI,17.7792949,50.4791824, 40.30833333333333, 987.5, 25.675,1.816666666666666,1.55, 2026-07-23 16:05:53
SZKOŁA PODSTAWOWA W KOMORNIKACH, UL. SZKOLNA, 47-364, KOMORNIKI,17.900609,50.433498, 48.541666666666664, 988.3000000000001, 22.108333333333334,2.216666666666667,1.933333333333333, 2026-07-23 16:05:53
TECHNIKUM NR 3 W GLIWICACH, UL. WARSZAWSKA, 44-100, GLIWICE,18.6782411,50.3080285, 73.23333333333333, 981.1666666666666, 19.077777777777776,4.066666666666666,3.311111111111111, 2026-07-23 16:05:53
SZKOŁA PODSTAWOWA NR 20 IM.II MORSKIEGO PUŁKU STRZELCÓW W GDYNI, UL. STARODWORCOWA, 81-575, GDYNIA,18.495846,54.464583, 66.04166666666667, 993.0416666666666, 19.741666666666667,2.25,1.9749999999999992, 2026-07-23 16:05:53
SZKOŁA PODSTAWOWA IM. PRZYJACIÓŁ ZIEMI W KŁODAWIE, , 89-632, KŁODAWA,17.6377441,53.745006, 83.99166666666666, 989.525, 16.758333333333333,2.766666666666667,2.516666666666666, 2026-07-23 16:05:53
SZKOŁA PODSTAWOWA NR 2 IM. STANISŁAWA STASZICA W OSTROŁĘCE, UL. PAPIERNICZA, 07-410, OSTROŁĘKA,21.5825833,53.0888402, 54.23333333333333, 995.4833333333332, 23.974999999999998,2.891666666666667,2.608333333333333, 2026-07-23 16:05:53
SZKOŁA PODSTAWOWA NR 67 IM. WŁADYSŁAWA ŁOKIETKA W KRAKOWIE, UL. KACZORÓWKA, 31-264, KRAKÓW-KROWODRZA,19.9056364,50.1069438, 83.00833333333334, 982.1333333333333, 15.75,3.875,3.183333333333333, 2026-07-23 16:05:53
IV LICEUM OGÓLNOKSZTAŁCĄCE IM. HENRYKA SIENKIEWICZA W CZĘSTOCHOWIE, AL. ALEJA NAJŚWIĘTSZEJ MARYI PANNY, 42-217, CZĘSTOCHOWA,19.1090584,50.8125266, 67.73333333333333, 978.3166666666666, 19.8,2.25,1.875, 2026-07-23 16:05:53
PUBLICZNA KATOLICKA SZKOŁA PODSTAWOWA IM. ŚW. JOANNY BERETTY MOLLI W KRAKOWIE, UL. STELMACHÓW, 31-349, KRAKÓW-KROWODRZA,19.9043827,50.0953292, 84.50833333333334, 975.4583333333334, 15.075000000000001,2.558333333333333,2.291666666666666, 2026-07-23 16:05:53
SZKOŁA PODSTAWOWA NR 33 IM. M. KOWNACKIEJ W CZĘSTOCHOWIE, UL. SEWERYNA GOSZCZYŃSKIEGO, 42-217, CZĘSTOCHOWA,19.1097087,50.7990464, 72.34166666666667, 979.3583333333332, 20.041666666666668,2.058333333333333,1.6833333333333331, 2026-07-23 16:05:53
SZKOŁA PODSTAWOWA IM.JANA KOCHANOWSKIEGO W CZARNYM LESIE, UL. SZKOLNA, 42-233, CZARNY LAS,19.0845102,50.8928973, 65.89166666666667, 981.7333333333332, 19.091666666666665,2.858333333333333,2.6166666666666663, 2026-07-23 16:05:53
SZKOŁA PODSTAWOWA NR 49 IM. J.KUSOCIŃSKIEGO W CZĘSTOCHOWIE, UL. JESIENNA, 42-208, CZĘSTOCHOWA,19.146175,50.7703289, 73.325, 977.85, 18.591666666666665,1.166666666666666,0.966666666666666, 2026-07-23 16:05:53
SZKOŁA PODSTAWOWA W SEWERYNOWIE, , 07-120, SEWERYNÓW,21.7538805,52.4131115, 75.58333333333333, 990.1666666666666, 20.033333333333335,2.708333333333333,2.275, 2026-07-23 16:05:53
SZKOŁA PODSTAWOWA IM. GEN.STANISŁAWA MACZKA W BOGUCHWALE, UL. TEODORA LUBOMIRSKIEGO, 36-040, BOGUCHWAŁA,21.9468603,49.9849727, 79.84166666666667, 983.9416666666666, 16.458333333333332,3.8249999999999993,3.458333333333333, 2026-07-23 16:05:53
SZKOŁA PODSTAWOWA IM. PROF. JANA SAJDAKA W BURZYNIE, , 33-170, BURZYN,21.0614367,49.8737482, 59.06666666666666, 981.3499999999999, 20.45,1.666666666666666,1.466666666666666, 2026-07-23 16:05:53
SZKOŁA PODSTAWOWA IM. KORNELA MAKUSZYŃSKIEGO W DĄBRÓWCE TUCHOWSKIEJ, , 33-170, DĄBRÓWKA TUCHOWSKA,21.0449769,49.8733226, 62.025, 984.6416666666668, 19.7,1.583333333333333,1.333333333333333, 2026-07-23 16:05:53
PUBLICZNA SZKOŁA PODSTAWOWA W BĄKOWEJ, , 27-310, BĄKOWA,21.462254,51.209968, 66.31666666666666, 986.7666666666668, 20.7,1.591666666666666,1.316666666666666, 2026-07-23 16:05:53
LICEUM OGÓLNOKSZTAŁCĄCE W PRZASNYSZU, UL. MAZOWIECKA, 06-300, PRZASNYSZ,20.894694468872185,53.02520296443298, 50.525, 991.775, 24.008333333333336,3.0,2.583333333333333, 2026-07-23 16:05:53
BRANŻOWA SZKOŁA I STOPNIA W PRZASNYSZU, UL. MAZOWIECKA, 06-300, PRZASNYSZ,20.870424368871877,53.01786487865621, 50.949999999999996, 991.3583333333332, 24.150000000000002,2.316666666666667,2.125, 2026-07-23 16:05:53
TECHNIKUM W ZESPOLE SZKÓŁ POWIATOWYCH IM. MJRA HENRYKA SUCHARSKIEGO W PRZASNYSZU, UL. MAZOWIECKA, 06-300, PRZASNYSZ,20.87980154232724,53.01566507941117, 53.39166666666667, 991.4583333333334, 23.625,2.441666666666667,2.266666666666666, 2026-07-23 16:05:53
SZKOŁA PODSTAWOWA IM. FELIKSA NOWOWIEJSKIEGO W WYDMINACH, UL. GRUNWALDZKA, 11-510, WYDMINY,22.034963,53.9804304, 66.58333333333333, 988.6, 19.766666666666666,2.591666666666667,2.324999999999999, 2026-07-23 16:05:53
TECHIKUM IM. JANA PAWŁA II W ŻARNOWCU, UL. KRAKOWSKA, 42-439, ŻARNOWIEC,19.8627098,50.4785469, 64.15833333333333, 975.3583333333332, 19.3,2.233333333333333,1.958333333333333, 2026-07-23 16:05:53
SZKOŁA PODSTAWOWA NR 3 IM. ŚW. MAKSYMILIANA MARII KOLBEGO W CHMIELNIKU, , 36-016, CHMIELNIK,22.153376,49.967673, 79.46666666666667, 980.3333333333334, 16.433333333333334,3.858333333333333,3.3, 2026-07-23 16:05:53
SZKOŁA PODSTAWOWA Z ODDZIAŁAMI INTEGRACYJNYMI IM. JANA PAWŁA II W PANIÓWKACH, UL. ZWYCIĘSTWA, 44-177, PANIÓWKI,18.7807475,50.2326931, 74.03333333333333, 984.8333333333334, 19.358333333333334,3.083333333333333,2.525, 2026-07-23 16:05:53
SZKOŁA PODSTAWOWA IM. WITOLDA BUDRYKA W CHUDOWIE, UL. SZKOLNA, 44-177, CHUDÓW,18.7790318,50.2106591, 71.375, 980.9833333333332, 18.866666666666667,3.4916666666666663,2.925, 2026-07-23 16:05:53
SZKOŁA PODSTAWOWA NR 12 IM. JÓZEFA JANIKA W MIKOŁOWIE, UL. SZKOLNA, 43-196, MIKOŁÓW,18.79996,50.1842309, 73.65833333333333, 977.3833333333333, 18.366666666666667,2.508333333333333,1.983333333333333, 2026-07-23 16:05:53
SZKOŁA PODSTAWOWA IM. ORŁA BIAŁEGO W WYKOWIE, , 18-500, WYKOWO,21.919300168509835,53.4743330561782, 88.54166666666667, 994.3416666666667, 18.316666666666666,4.399999999999999,3.925, 2026-07-23 16:05:53
SZKOŁA PODSTAWOWA IM. ŚW. JADWIGI KRÓLOWEJ W KAMIENIU PRUSINIE, , 36-053, KAMIEŃ,22.13142067,50.34420441, 66.05, 984.2333333333332, 20.358333333333334,2.391666666666666,2.025, 2026-07-23 16:05:53
SZKOŁA PODSTAWOWA W SKÓRCU, UL. SIEDLECKA, 08-114, SKÓRZEC,22.13605362,52.10761735, 56.375, 985.8416666666667, 21.125,3.175,2.691666666666666, 2026-07-23 16:05:53
SZKOŁA PODSTAWOWA NR 3 IM. MARII KONOPNICKIEJ W ŁOCHOWIE, UL. 1 MAJA, 07-130, ŁOCHÓW,21.68182,52.5307, 88.95833333333333, 996.225, 16.658333333333335,2.358333333333333,1.9083333333333328, 2026-07-23 16:05:53
SZKOŁA PODSTAWOWA IM.ŻOŁNIERZY II ARMII WOJSKA POLSKIEGO W ZESPOLE OŚWIATOWO-WYCHOWAWCZYM W BIAŁKACH , UL. DIAMENTOWA, 08-110, BIAŁKI,22.292238,52.131471, 57.525, 987.5916666666667, 21.483333333333334,2.3,2.3, 2026-07-23 16:05:53
SZKOŁA PODSTAWOWA W ZESPOLE OŚWIATOWYM IM. JANA PAWŁA II W STOKU LACKIM , UL. SIEDLECKA, 08-110, STOK LACKI,22.35006721,52.16135264, 49.550000000000004, 989.0083333333333, 23.191666666666666,2.4916666666666663,2.225, 2026-07-23 16:05:53
SZKOŁA PODSTAWOWA IM. 18 DYWIZJI PIECHOTY ZIEMI ŁOMŻYŃSKIEJ W ANDRZEJEWIE, UL. WARSZAWSKA, 07-305, ANDRZEJEWO,22.19398993,52.82792464, 53.59166666666667, 990.5666666666666, 21.71666666666667,2.175,2.175, 2026-07-23 16:05:53
TECHNIKUM NR 8 W RZESZOWIE, UL. WINCENTEGO POLA, 35-021, RZESZÓW,21.98647117,50.02719923, 86.625, 987.9499999999999, 15.783333333333333,3.4916666666666663,3.166666666666666, 2026-07-23 16:05:53
SZKOŁA PODSTAWOWA IM.JANA KOCHANOWSKIEGO W ŚWIDNIKU, , 34-606, ŚWIDNIK,20.5329659,49.5933178, 64.90833333333333, 966.3166666666666, 19.45,2.291666666666666,2.025, 2026-07-23 16:05:53
SZKOŁA PODSTAWOWA W ULATOWIE-ADAMACH, , 06-316, ULATOWO-ADAMY,20.9328136,53.1650883, 54.958333333333336, 990.3583333333332, 22.625,4.325,3.791666666666666, 2026-07-23 16:05:53
SZKOŁA PODSTAWOWA IM. ADAMA MICKIEWICZA W JAKSICACH, , 32-200, JAKSICE,20.010296,50.322967, 67.25833333333334, 977.9250000000001, 19.508333333333333,2.916666666666666,2.516666666666666, 2026-07-23 16:05:53
SZKOŁA PODSTAWOWA IM. ŚW. KRÓLOWEJ JADWIGI W HERMANOWEJ, , 36-020, HERMANOWA,22.0188654,49.9417235, 82.52727272727272, 979.7272727272727, 15.69090909090909,2.9909090909090903,2.536363636363636, 2026-07-23 16:05:53
PUBLICZNA SZKOŁA PODSTAWOWA IM. ŚW. KINGI W ŁĄKCIE DOLNEJ , , 32-733, ŁĄKTA DOLNA,20.399763,49.8388069, 53.64166666666666, 979.1083333333332, 22.175,2.458333333333333,2.116666666666666, 2026-07-23 16:05:53
SZKOŁA PODSTAWOWA IM. S. CZESŁAWY LOREK W BICZYCACH DOLNYCH, , 33-395, BICZYCE DOLNE,20.6443899,49.6312294, 71.66666666666667, 977.2333333333332, 19.116666666666667,2.025,1.791666666666666, 2026-07-23 16:05:53
OGÓLNOKSZTAŁCĄCE LICEUM AKADEMICKIE JEZUITÓW W NOWYM SĄCZU, UL. PIOTRA SKARGI, 33-300, NOWY SĄCZ,20.69132733,49.62662433, 71.54166666666667, 977.35, 18.583333333333332,5.6,5.141666666666667, 2026-07-23 16:05:53
TECHNIKUM NR 4 W NOWYM SĄCZU, UL. ŚW. DUCHA, 33-300, NOWY SĄCZ,20.69270978,49.62622093, 69.075, 977.2750000000001, 19.391666666666666,3.291666666666666,2.908333333333333, 2026-07-23 16:05:53
SZKOŁA PODSTAWOWA IM. JANA PAWŁA II - PAPIEŻA POLAKA W STARYM LUBOTYNIU, , 07-303, STARY LUBOTYŃ,21.9359049,52.932735, 57.85833333333333, 991.0916666666667, 22.541666666666668,2.8,2.3666666666666663, 2026-07-23 16:05:53
SZKOŁA PODSTAWOWA NR 6 Z ODDZIAŁAMI INTEGRACYJNYMI IM. JANA PAWŁA II W ŁAZISKACH GÓRNYCH, UL. WYRSKA, 43-173, ŁAZISKA GÓRNE,18.8703811,50.1362116, 75.125, 975.8000000000001, 19.191666666666666,3.508333333333333,2.958333333333333, 2026-07-23 16:05:53
TECHNIKUM DLA MŁODZIEŻY TEB EDUKACJA W NOWYM SĄCZU, UL. RYNEK, 33-300, NOWY SĄCZ,20.6900064,49.62567283, 64.57272727272726, 976.1545454545455, 20.69090909090909,2.163636363636363,1.918181818181818, 2026-07-23 16:05:53
BRANŻOWA SZKOŁA I STOPNIA NR 2 W NOWYM SĄCZU, UL. KRÓLOWEJ JADWIGI, 33-300, NOWY SĄCZ,20.707689,49.613478, 76.0, 976.2333333333332, 17.575,2.2416666666666663,2.066666666666667, 2026-07-23 16:05:53
SZKOŁA PODSTAWOWA W STRZEGOCINIE, , 06-150, STRZEGOCIN,20.84085873,52.68602636, 71.85000000000001, 989.0666666666666, 20.224999999999998,1.9749999999999992,1.691666666666666, 2026-07-23 16:05:53
SZKOŁA PODSTAWOWA NR 15 IM. BOHATERÓW SĄDECCZYZNY W NOWYM SĄCZU, UL. 29 LISTOPADA, 33-300, NOWY SĄCZ,20.7136659,49.6028522, 59.48333333333333, 973.3333333333334, 21.275000000000002,2.158333333333333,1.9749999999999992, 2026-07-23 16:05:53
SZKOŁA PODSTAWOWA NR 1 W WOLBROMIU, UL. MARIACKA, 32-340, WOLBROM,19.7584,50.37939, 73.71666666666667, 966.875, 18.075,3.125,2.7416666666666663, 2026-07-23 16:05:53
SZKOŁA PODSTAWOWA W SZCZEPANKOWIE, , 18-411, SZCZEPANKOWO,21.94948922362341,53.12016423529404, 66.91666666666667, 991.8000000000001, 20.641666666666666,3.983333333333333,3.316666666666666, 2026-07-23 16:05:53
SZKOŁA PODSTAWOWA NR 21 IM. KS. STANISŁAWA KONARSKIEGO W CZĘSTOCHOWIE, UL. SABINOWSKA, 42-202, CZĘSTOCHOWA,19.161529,50.8367999, 74.25, 979.8416666666667, 18.466666666666665,2.258333333333333,1.8916666666666664, 2026-07-23 16:05:53
SZKOŁA PODSTAWOWA IM. K. PUŁASKIGO W RĘDZINACH OSIEDLU, UL. DZIAŁKOWICZÓW, 42-242, RĘDZINY,19.2114785,50.857508, 61.73636363636364, 977.1090909090909, 20.78181818181818,2.263636363636363,1.881818181818181, 2026-07-23 16:05:53
SZKOŁA PODSTAWOWA IM.TADEUSZA KOŚCIUSZKI W WIERZCHOWISKU, UL. DŁUGA, 42-233, WIERZCHOWISKO,19.1315281,50.87314, 66.53333333333333, 980.6666666666666, 19.474999999999998,2.341666666666667,1.925, 2026-07-23 16:05:53
SZKOŁA PODSTAWOWA NR 16 W GLIWICACH, UL. JANA KILIŃSKIEGO, 44-122, GLIWICE,18.6691473,50.2768393, 96.23333333333333, 1097.8, 21.05,3.025,2.5, 2026-07-23 16:05:53
NIEPUBLICZNA SZKOŁA PODSTAWOWA W ZDROCHCU, , 33-273, ZDROCHEC,20.8284982,50.1390234, 64.47692307692309, 987.0923076923077, 20.03846153846154,1.915384615384615,1.915384615384615, 2026-07-23 16:05:53
SZKOŁA PODSTAWOWA W PIECNIKU, , 78-650, PIECNIK,16.2532907,53.3424311, 61.88333333333333, 993.3083333333334, 20.716666666666665,2.891666666666667,2.65, 2026-07-23 16:05:53
SZKOŁA PODSTAWOWA IM. JANA PAWŁA II W BIELICACH, UL. JANA PAWŁA II, 74-202, BIELICE,14.7260542,53.2035917, 44.53333333333333, 1007.7833333333333, 21.575,1.083333333333333,0.891666666666666, 2026-07-23 16:05:53
TECHNIKUM NR 5 W PILE, UL. GEN. SIKORSKIEGO, 64-920, PIŁA,16.7382266,53.1509671, 74.15833333333333, 1001.1, 18.616666666666664,1.458333333333333,1.266666666666666, 2026-07-23 16:05:53
TECHNIKUM W BIELAWIE - ZESPÓŁ SZKÓŁ I PLACÓWEK KSZTAŁCENIA ZAWODOWEGO W BIELAWIE, UL. STEFANA ŻEROMSKIEGO, 58-260, BIELAWA,16.623803,50.691456, 46.875, 976.0166666666668, 23.983333333333334,2.033333333333333,1.7666666666666662, 2026-07-23 16:05:53
TECHNIKUM NR 1 W BOLESŁAWCU, UL. GÓRNE MŁYNY, 59-700, BOLESŁAWIEC,15.558936,51.263908, 82.86666666666666, 993.6333333333333, 17.966666666666665,8.191666666666666,7.6416666666666675, 2026-07-23 16:05:53
TECHNIKUM NR 2 W BOLESŁAWCU, AL. TYSIĄCLECIA, 59-700, BOLESŁAWIEC,15.591082,51.261139, 73.79166666666667, 986.275, 18.608333333333334,3.308333333333333,2.9, 2026-07-23 16:05:53
SZKOŁA PODSTAWOWA IM.MARII KONOPNICKIEJ W KOSTOMŁOTACH, UL. WROCŁAWSKA, 55-311, KOSTOMŁOTY,16.6157528,51.0436096, 65.97500000000001, 991.25, 19.400000000000002,2.658333333333333,2.208333333333333, 2026-07-23 16:05:53
TECHNIKUM W POWIATOWYM ZESPOLE SZKÓŁ W CHOJNOWIE, UL. WINCENTEGO WITOSA, 59-225, CHOJNÓW,15.935802,51.272209, 82.5, 994.6916666666667, 17.25,3.108333333333333,2.65, 2026-07-23 16:05:53
SZKOŁA PODSTAWOWA NR 2 IM. STANISŁAWA MONIUSZKI W ORZESZU, UL. BUKOWINA, 43-180, ORZESZE,18.779395,50.14921, 71.16666666666667, 974.1166666666667, 19.941666666666666,3.125,2.608333333333333, 2026-07-23 16:05:53
SZKOŁA PODSTAWOWA IM. A.SASIMOWSKIEGO W BOROWIU, UL. ALEKSANDRA SASIMOWSKIEGO, 08-412, BOROWIE,21.7676799,51.9488003, 69.08333333333333, 989.4250000000001, 19.208333333333332,3.033333333333333,2.6166666666666663, 2026-07-23 16:05:53
SZKOŁA PODSTAWOWA NR 3 IM.KPT.STANISŁAWA BETLEJA W KŁODZKU, UL. JANA PAWŁA II, 57-300, KŁODZKO,16.646804,50.437599, 53.76666666666667, 973.9, 21.333333333333332,1.508333333333333,1.333333333333333, 2026-07-23 16:05:53
SZKOŁA PODSTAWOWA IM. WŁADYSŁAWA STANISŁAWA REYMONTA W KŁODZKU, UL. ROMUALDA TRAUGUTTA, 57-300, KŁODZKO,16.65091495,50.43995998, 54.81666666666666, 975.3583333333332, 22.458333333333332,1.716666666666666,1.491666666666666, 2026-07-23 16:05:53
TECHNIKUM NR 2 W KŁODZKU, UL. SZKOLNA, 57-300, KŁODZKO,16.652629,50.433394, 56.44444444444444, 976.8444444444444, 20.788888888888888,1.744444444444444,1.466666666666666, 2026-07-23 16:05:53
SZKOŁA PODSTAWOWA IM. BOLESŁAWA CHROBREGO W NIEMCZY, UL. BOLESŁAWA CHROBREGO, 58-230, NIEMCZA,16.86538691,50.90346585, 57.06666666666666, 984.0416666666666, 19.716666666666665,3.083333333333333,2.716666666666667, 2026-07-23 16:05:53
PUBLICZNA SZKOŁA PODSTAWOWA IM. MARII KONOPNICKIEJ W ZIELENICACH, , 57-160, ZIELENICE,16.986569,50.826304, 56.041666666666664, 990.6416666666668, 21.108333333333334,3.066666666666666,2.675, 2026-07-23 16:05:53
SZKOŁA PODSTAWOWA SPECJALNA W STRZELINIE, UL. ZĄBKOWICKA, 57-100, STRZELIN,17.060713,50.777638, 57.958333333333336, 993.3166666666666, 19.675,2.766666666666667,2.483333333333333, 2026-07-23 16:05:53
SZKOŁA PODSTAWOWA IM. ORŁA BIAŁEGO W KAMIENIU WIELKIM, UL. KOŚCIELNA, 66-460, KAMIEŃ WIELKI,14.77442,52.663653, 37.300000000000004, 1006.6166666666667, 22.2,1.133333333333333,0.8583333333333331, 2026-07-23 16:05:53
SZKOŁA PODSTAWOWA IM. JANA PAWŁA II W REDLE, , 78-320, REDŁO,15.96850893241895,53.77690300578236, 81.20833333333333, 1001.1333333333333, 16.45,0.966666666666666,0.5, 2026-07-23 16:05:53
