NAME,STREET,POST_CODE,CITY,LONGITUDE,LATITUDE,HUMIDITY_AVG,PRESSURE_AVG,TEMPERATURE_AVG,PM10_AVG,PM25_AVG,TIMESTAMP,ERROR1,ERROR2
SZKOŁA PODSTAWOWA IM. MARIANA FALSKIEGO W KRASZEWICACH, UL. SZKOLNA, 63-522, KRASZEWICE, 18.22403, 51.51563, 99.90000000000002, 1012.8333333333334, 12.633333333333333,0.399999999999999,0.21, 2026-07-04 06:54:45,,
SZKOŁA PODSTAWOWA WE WRZĄSOWICACH, UL. SZKOLNA, 32-040, WRZĄSOWICE, 19.94282, 49.96103, 63.28333333333333, 981.775, 16.224999999999998,2.35,2.016666666666666, 2026-07-04 06:54:45,,
ZESPÓŁ SZKÓŁ NR 1 W PSZCZYNIE, UL. KAZIMIERZA WIELKIEGO, 43-200, PSZCZYNA, 18.9457058, 49.965883, 92.5, 1004.9333333333334, 13.9,0.1,0.049999999999999, 2026-07-04 06:54:45,,
ZESPÓŁ SZKÓŁ IM. POWSTAŃCÓW WIELKOPOLSKICH W JANKOWIE PRZYGODZKIM, SZKOLNA, 63-421, JANKÓW PRZYGODZKI, 17.7889069, 51.596172, 99.90000000000002, 992.4, 16.4,21.3,11.15, 2026-07-04 06:54:45,,
SZKOŁA PODSTAWOWA NR 7 IM. ŻOŁNIERZY WRZEŚNIA W ĆWIKLICACH, UL. MĘCZENNIKÓW OŚWIĘCIMSKICH, 43-229, ĆWIKLICE, 18.989839, 49.971937, 84.5, 990.4, 15.566666666666668,2.066666666666666,1.066666666666666, 2026-07-04 06:54:45,,
SZKOŁA PODSTAWOWA NR 12 W STUDZIONCE, UL. JORDANA, 43-245, STUDZIONKA, 18.774985, 49.9603559, 67.96666666666667, 997.2666666666668, 14.6,2.3666666666666663,1.39, 2026-07-04 06:54:45,,
ZESPÓŁ SZKOLNO-PRZEDSZKOLNY W PIASKU, SZKOLNA, 43-211, PIASEK, 18.94634, 50.00955, 82.36666666666666, 1000.7666666666668, 12.366666666666667,2.733333333333333,1.5999999999999992, 2026-07-04 06:54:45,,
ZESPÓŁ SZKOLNO-PRZEDSZKOLNY W ŁĄCE, FITELBERGA, 43-241, ŁĄKA, 18.906757, 49.9582444, 99.90000000000002, 996.6333333333333, 13.1,1.366666666666666,0.85, 2026-07-04 06:54:45,,
SZKOŁA PODSTAWOWA NR 3 W LUBONIU, ARMII POZNAŃ, 62-030, LUBOŃ, 16.8968, 52.3481, 85.23333333333333, 1004.3666666666667, 13.433333333333332,2.766666666666667,1.399999999999999, 2026-07-04 06:54:45,,
ZESPÓŁ SZKÓŁ PONADGIMNAZJALNYCH CENTRUM KSZTAŁCENIA USTAWICZNEGO W PRZYGODZICACH, PTR, 63-421, PRZYGODZICE, 17.822685, 51.59023, 78.86666666666666, 1008.5, 14.699999999999998,1.933333333333333,1.25, 2026-07-04 06:54:45,,
LICEUM OGÓLNOKSZTAŁCĄCE IM. WŁADYSŁAWA JAGIEŁŁY W ODOLANOWIE, KROTOSZYŃSKA, 63-430, ODOLANÓW, 17.66024, 51.58063, 64.36666666666666, 1004.5333333333333, 14.033333333333333,1.5999999999999992,0.91, 2026-07-04 06:54:45,,
ZESPÓŁ SZKÓŁ W PIOTROWIE, None, 62-814, PIOTRÓW, 18.05485, 51.81570, 78.66666666666667, 1005.1333333333333, 12.933333333333332,1.0,0.5366666666666661, 2026-07-04 06:54:45,,
SZKOŁA PODSTAWOWA W CZARNYMLESIE, None, 63-421, CZARNYLAS, 17.762604, 51.508366, 62.93333333333334, 999.6999999999999, 14.633333333333333,0.0,0.0, 2026-07-04 06:54:45,,
SZKOŁA PODSTAWOWA NR 2 IM. AUGUSTA HR. CIESZKOWSKIEGO W LUBONIU, ŻABIKOWSKA, 62-030, LUBOŃ, 16.878431, 52.346672, 77.10000000000001, 1011.9, 13.333333333333334,1.233333333333333,0.626666666666666, 2026-07-04 06:54:45,,
SZKOŁA PODSTAWOWA IM. POWSTAŃCÓW WIELKOPOLSKICH W DORUCHOWIE, KALISKA, 63-505, DORUCHÓW, 18.0786, 51.4189, 68.93333333333334, 1023.4333333333334, 13.733333333333334,0.0,0.0, 2026-07-04 06:54:45,,
SZKOŁA PODSTAWOWA IM. MIKOŁAJA KOPERNIKA W BUKOWCU, SZKOLNA, 95-006, BUKOWIEC, 19.6757, 51.6918, 83.26666666666667, 988.1999999999999, 13.133333333333333,0.7333333333333331,0.383333333333333, 2026-07-04 06:54:45,,
SZKOŁA PODSTAWOWA IM. MARII KONOPNICKIEJ W KOTLINIE, MARII KONOPNICKIEJ, 63-220, KOTLIN, 17.645437, 51.91866, 84.26666666666667, 1001.5666666666666, 13.566666666666668,0.033333333333333,0.02, 2026-07-04 06:54:45,,
SZKOŁA PODSTAWOWA NR 2 W OTMUCHOWIE, KALINOWA, 48-385, OTMUCHÓW, 17.213, 50.46535, 90.89999999999999, 1000.4666666666667, 14.733333333333334,0.6000000000000001,0.336666666666666, 2026-07-04 06:54:45,,
SZKOŁA PODSTAWOWA IM. BOHATERÓW POWSTAŃ ŚLĄSKICH W KAŁKOWIE, None, 48-364, KAŁKÓW, 17.185241, 50.40420, 63.6, 996.2333333333332, 15.566666666666668,1.533333333333333,0.77, 2026-07-04 06:54:45,,
SZKOŁA PODSTAWOWA W MACIEJOWICACH, None, 48-385, MACIEJOWICE, 17.13497, 50.4998, 64.7, 986.6666666666666, 16.866666666666664,0.033333333333333,0.02, 2026-07-04 06:54:45,,
TEST SZKOŁA, ul Testowa, 00-000, TESTCITY, -157.52969778504766, 1.8586845937815497, 58.833333333333336, 1003.5333333333333, 17.03333333333333,0.1,0.05, 2026-07-04 06:54:45,,
ZESPÓŁ EDUKACYJNY W KONOTOPIE, PL. POWSTAŃCÓW WIELKOPOLSKICH, 67-416, KONOTOP, 15.9031, 51.93023, 62.666666666666664, 1013.5666666666666, 14.566666666666668,0.333333333333333,0.173333333333333, 2026-07-04 06:54:45,,
PRZEDSZKOLE NR 6 W BOCHNI, MUROWIANKA, 32-700, BOCHNIA, 20.4415, 49.96533, 59.199999999999996, 1008.2666666666668, 16.533333333333335,1.566666666666666,0.8300000000000001, 2026-07-04 06:54:45,,
PUBLICZNA SZKOŁA PODSTAWOWA W SZYMISZOWIE, SZKOLNA, 47-161, SZYMISZÓW, 18.21983, 50.53656, 82.33333333333333, 997.1333333333333, 15.266666666666666,1.366666666666666,0.76, 2026-07-04 06:54:45,,
PUBLICZNA SZKOŁA PODSTAWOWA W ROZMIERCE, SZKOLNA, 47-171, ROZMIERKA, 18.26905, 50.560720, 60.800000000000004, 1026.5, 15.6,0.133333333333333,0.073333333333333, 2026-07-04 06:54:45,,
SZKOŁA PODSTAWOWA IM. ORŁA BIAŁEGO W KUROWICACH FILIA W WOLI RAKOWEJ, SZKOLNA, 95-006, WOLA RAKOWA, 19.61157, 51.67447, 72.63333333333333, 994.8000000000001, 13.533333333333333,0.066666666666666,0.036666666666666, 2026-07-04 06:54:45,,
SZKOŁA PODSTAWOWA NR 8 IM. JÓZEFA WESZKI W RUDOŁTOWICACH, KRZYWOŃ, 43-220, RUDOŁTOWICE, 19.00171, 49.95711, 99.90000000000002, 1000.1666666666666, 14.033333333333333,0.2,0.093333333333333, 2026-07-04 06:54:45,,
ZESPÓŁ SZKOLNO-PRZEDSZKOLNY W WIŚLE WIELKIEJ, HODOWCÓW, 43-243, WISŁA WIELKA, 18.85320, 49.95291, 99.90000000000002, 994.7666666666668, 13.733333333333334,1.266666666666666,0.7533333333333331, 2026-07-04 06:54:45,,
SZKOŁA PODSTAWOWA IM. MARKA PRAWEGO W JEMIELNICY, SZKOLNA, 47-133, JEMIELNICA, 18.380122, 50.548993, 79.39999999999999, 999.3000000000001, 15.533333333333333,1.9,1.08, 2026-07-04 06:54:45,,
SZKOŁA PODSTAWOWA NR 2 IM. ŚW. JADWIGI ŚLĄSKIEJ W PSZCZYNIE, KATOWICKA, 43-200, PSZCZYNA, 18.947994, 49.992568, 83.60000000000001, 998.5, 14.200000000000001,0.7333333333333331,0.45, 2026-07-04 06:54:45,,
ZESPÓŁ SZKÓŁ SPECJALNYCH W OSTROWCU ŚWIĘTOKRZYSKIM, IŁZECKA, 27-400, OSTROWIEC ŚWIĘTOKRZYSKI, 21.386931, 50.942931, 99.90000000000002, 1009.2333333333332, 13.866666666666667,1.233333333333333,0.7433333333333331, 2026-07-04 06:54:45,,
ZESPÓŁ SZKOLNO-PRZEDSZKOLNY W JANKOWICACH, BAZIOWA, 43-215, JANKOWICE, 18.989423, 50.002529, 29.0, 936.9, 23.3,28.0,17.0, 2026-07-04 06:54:45,,
SZKOŁA PODSTAWOWA NR 4 IM. JÓZEFA PUKOWCA W PSZCZYNIE, ZYGMUNTA KRASIŃSKIEGO, 43-200, PSZCZYNA, 18.961125, 49.971182, 77.96666666666667, 993.0333333333333, 15.399999999999999,7.966666666666666,3.943333333333333, 2026-07-04 06:54:45,,
ZESPÓŁ SZKÓŁ W OTMUCHOWIE, KRAKOWSKA, 48-385, OTMUCHÓW, 17.167634, 50.4705, 57.56666666666666, 989.8666666666667, 16.233333333333334,0.433333333333333,0.293333333333333, 2026-07-04 06:54:45,,
SZKOŁA PODSTAWOWA NR 6\xa0IM. IGNACEGO ŁUKASZEWICZA W CZECHOWICACH-DZIEDZICACH, UL. ŁUKASIEWICZA, 43-502, CZECHWICE-DZIEDZICE, 19.016493, 49.899404, 70.56666666666666, 985.4666666666667, 14.933333333333332,0.166666666666666,0.103333333333333, 2026-07-04 06:54:45,,
SZKOŁA PODSTAWOWA NR 4 IM. GUSTAWA MORCINKA W SŁUPSKU, UL. LESZCZYŃSKIEGO, 76-200, SŁUPSK, 17.005017, 54.475286, 79.7, 1009.8000000000001, 14.833333333333334,3.633333333333333,2.199999999999999, 2026-07-04 06:54:45,,
SZKOŁA PODSTAWOWA W KLESZCZOWIE, UL. SZKOLNA, 44-164, KLESZCZÓW, 18.527510, 50.344057, 74.86666666666666, 993.1333333333333, 15.566666666666668,0.533333333333333,0.306666666666666, 2026-07-04 06:54:45,,
SZKOŁA PODSTAWOWA NR 5 IM. GRYFITÓW W SŁUPSKU, UL. HUBALCZYKÓW, 76-200, SŁUPSK, 17.062723, 54.455744, 78.86666666666666, 1008.5, 14.699999999999998,1.933333333333333,1.25, 2026-07-04 06:54:45,,
ZESPÓŁ SZKOLNO-PRZEDSZKOLNY W POTĘPIE, UL. TARNOGÓRSKA, 42-693, POTĘPA, 18.662519, 50.565309, 99.90000000000002, 1015.8333333333334, 14.866666666666667,0.833333333333333,0.493333333333333, 2026-07-04 06:54:45,,
SZKOŁA PODSTAWOWA NR 3 IM. JANA PAWŁA II W PSZCZYNIE, UL. STAROMIEJSKA, 43-200, PSZCZYNA, 18.92452, 49.98849, 70.88333333333334, 990.1833333333334, 14.458333333333334,3.3,2.4, 2026-07-04 06:54:45,,
SZKOŁA PODSTAWOWA IM. MIKOŁAJA REJA W GORZYCZKACH, UL. WIEJSKA, 44-350, GORZYCZKI, 18.399689, 49.944774, 93.86666666666667, 991.3333333333334, 15.6,1.0,0.346666666666666, 2026-07-04 06:54:45,,
SZKOŁA PODSTAWOWA NR 6 IM. LUDWIKA WARYŃSKIEGO W SŁUPSKU, UL. STARZYŃSKIEGO, 76-200, SŁUPSK, 17.023811, 54.465980, 99.90000000000002, 1014.4666666666667, 14.9,0.6666666666666661,0.343333333333333, 2026-07-04 06:54:45,,
SZKOŁA PODSTAWOWA IM. JANA BRZECHWY W KOBIÓRZE, UL. TUWIMA, 43-210, KOBIÓR, 18.930274, 50.060752, 99.90000000000002, 994.8666666666667, 15.466666666666667,2.166666666666666,1.253333333333333, 2026-07-04 06:54:45,,
SZKOŁA PODSTAWOWA W PONISZOWICACH, UL. GLIWICKA, 44-172, PONISZOWICE, 18.458674, 50.409220, 89.86666666666667, 991.5, 15.966666666666667,0.333333333333333,0.18, 2026-07-04 06:54:45,,
SZKOŁA PODSTAWOWA IM. ORŁA BIAŁEGO W SOKOŁOWICACH, SOKOŁOWICE, 56-400, SOKOŁOWICE, 17.4469, 51.245, 68.26666666666667, 1000.7333333333332, 13.633333333333333,2.433333333333333,1.293333333333333, 2026-07-04 06:54:45,,
SZKOŁA PODSTAWOWA IM. UNICEF W LIGOCIE MAŁEJ, LIGOTA MAŁA, 56-400, LIGOTA MAŁA, 17.365476, 51.142467, 56.76666666666667, 974.5666666666666, 16.366666666666664,2.333333333333333,1.22, 2026-07-04 06:54:45,,
SZKOŁA PODSTAWOWA GMINY OLEŚNICA W OLEŚNICY, WILEŃSKA, 56-400, OLEŚNICA, 17.41034, 51.2095, 99.90000000000002, 1011.4333333333334, 14.133333333333333,0.166666666666666,0.09, 2026-07-04 06:54:45,,
SZKOŁA PODSTAWOWA NR 19 W BRZEŹCACH, POKOJU, 43-200, BRZEŹCE, 18.832539, 49.984943, 79.2, 992.4, 13.233333333333334,1.666666666666666,1.026666666666666, 2026-07-04 06:54:45,,
ZESPÓŁ SZKOLNO-PRZEDSZKOLNY W RADOSTOWIE ŚREDNIM, RADOSTÓW ŚREDNI, 59-800, RADOSTÓW ŚREDNI, 15.36293, 51.12153, 27.5, 983.0, 28.3,0.5,0.28, 2026-07-04 06:54:45,,
ZESPÓŁ SZKOLNO-PRZEDSZKOLNY W KOŚCIELNIKU, KOŚCIELNIK, 59-800, KOŚCIELNIK, 15.29682, 51.08393, 61.9, 995.9, 17.5,0.3,0.15, 2026-07-04 06:54:45,,
SZKOŁA PODSTAWOWA IM. POLSKICH ODKRYWCÓW I PODRÓŻNIKÓW W KOBIERZYCACH, PARKOWA, 55-040, KOBIERZYCE, 16.933169, 50.971851, 86.13333333333333, 994.1999999999999, 11.533333333333333,1.4,0.8833333333333331, 2026-07-04 06:54:45,,
SZKOŁA PODSTAWOWA IM. UNICEF W BIELANACH WROCŁAWSKICH, AKACJOWA, 55-040, BIELANY WROCŁAWSKIE, 16.971022, 51.038120, 67.36666666666667, 1006.0333333333333, 14.366666666666667,1.966666666666666,1.1833333333333331, 2026-07-04 06:54:45,,
SZKOŁA PODSTAWOWA IM. JANUSZA KORCZAKA W WYSOKIEJ, CHABROWA, 52-200, WYSOKA, 17.007729, 51.047504, 99.90000000000002, 1001.6, 15.533333333333333,0.466666666666666,0.256666666666666, 2026-07-04 06:54:45,,
SZKOŁA PODSTAWOWA IM. TADEUSZA MAZOWIECKIEGO W TYŃCU MAŁYM, SZKOLNA, 55-040, TYNIEC MAŁY, 16.909195, 51.021600, 67.8, 1019.16, 2.5,39.96,21.93, 2026-07-04 06:54:45,,
SZKOŁA PODSTAWOWA IM. ROMUALDA TRAUGUTTA W PUSTKOWIE ŻURAWSKIM, KOLEJOWA, 55-040, PUSTKÓW ŻURAWSKI, 16.859465, 50.958878, 99.90000000000002, 1001.0333333333333, 15.433333333333332,1.233333333333333,0.746666666666666, 2026-07-04 06:54:45,,
SZKOŁA PODSTAWOWA NR 1 IM. MARII KONOPNICKIEJ W ZESPOLE SZKÓŁ OGÓLNOKSZTAŁCĄCYCH NR 1 IM. MARII KONOPNICKIEJ W PRUSZCZU GDAŃSKIM, NIEMCEWICZA, 83-000, PRUSZCZ GDAŃSKI, 18.650575, 54.261512, 76.06666666666666, 1021.3333333333334, 15.766666666666666,1.0,0.5266666666666661, 2026-07-04 06:54:45,,
SZKOŁA PODSTAWOWA NR 2 IM. MIKOŁAJA KOPERNIKA W PRUSZCZU GDAŃSKIM, TYSIĄCLECIA, 83-000, PRUSZCZ GDAŃSKI, 18.628278, 54.260787, 80.03333333333333, 1013.3333333333334, 14.666666666666666,0.366666666666666,0.203333333333333, 2026-07-04 06:54:45,,
SZKOŁA PODSTAWOWA NR 3 IM. JANA MATEJKI W PRUSZCZU GDAŃSKIM, MATEJKI, 83-000, PRUSZCZ GDAŃSKI, 18.636981, 54.255547, 78.23333333333333, 1016.4, 16.933333333333334,1.0,0.563333333333333, 2026-07-04 06:54:45,,
SZKOŁA PODSTAWOWA NR 4 IM. IGNACEGO JANA PADEREWSKIEGO W PRUSZCZU GDAŃSKIM, KASPROWICZA, 83-000, PRUSZCZ GDAŃSKI, 18.670231, 54.263405, 74.43333333333334, 1015.1999999999999, 16.0,0.0,0.0, 2026-07-04 06:54:45,,
SZKOŁA PODSTAWOWA NR 13 W WIŚLE MAŁEJ, SOKOLA, 43-243, WISŁA MAŁA, 18.793987, 49.93368, 99.90000000000002, 999.3666666666667, 13.033333333333333,0.399999999999999,0.216666666666666, 2026-07-04 06:54:45,,
ZESPÓŁ SZKOLNO-PRZEDSZKOLNY W STUDZIENICACH, ŚW. JANA PAWŁA II 74, 43-215, STUDZIENICE, 18.983576, 50.016514, 97.2, 1003.1333333333333, 13.733333333333334,0.366666666666666,0.236666666666666, 2026-07-04 06:54:45,,
SZKOŁA PODSTAWOWA IM. JANUSZA KORCZAKA W SUSZCU, SZKOLNA, 43-267, SUSZEC, 18.79149, 50.03719, 99.90000000000002, 1007.8000000000001, 14.233333333333334,0.399999999999999,0.196666666666666, 2026-07-04 06:54:45,,
SZKOŁA PODSTAWOWA NR 11 W PORĘBIE, SZKOLNA, 43-200, PORĘBA, 18.876488, 49.984417, 90.53333333333335, 1007.8666666666667, 15.466666666666667,0.033333333333333,0.02, 2026-07-04 06:54:45,,
SZKOŁA PODSTAWOWA IM. MIKOŁAJA KOPERNIKA W WYSOCKU MAŁYM, KOŚCIELNA, 63-421, WYSOCKO MAŁE, 17.84109, 51.61033, 90.46666666666665, 999.0, 13.733333333333334,0.799999999999999,0.51, 2026-07-04 06:54:45,,
SZKOŁA PODSTAWOWA NR 3 IM. JULIANA TUWIMA W NOWEJ SOLI, BOTANICZNA, 67-100, NOWA SÓL, 15.71186, 51.82115, 66.60000000000001, 1014.7999999999998, 14.933333333333332,0.0,0.0, 2026-07-04 06:54:45,,
ZESPÓŁ SZKÓŁ W JANKOWIE PIERWSZYM, JANKÓW PIERWSZY, 62-814, JANKÓW PIERWSZY, 17.987951, 51.902107, 88.13333333333333, 1001.0333333333333, 11.833333333333334,1.4,0.7533333333333331, 2026-07-04 06:54:45,,
ZESPÓŁ SZKOLNO-PRZEDSZKOLNY W MESZNIE, MESZNO, 48-385, MESZNO, 17.15378, 50.43684, 85.10000000000001, 990.3666666666667, 15.633333333333333,0.5,0.29, 2026-07-04 06:54:45,,
SZKOŁA PODSTAWOWA IM. 16. PUŁKU UŁANÓW WIELKOPOLSKICH W GRUPIE, SZKOLNA, 86-134, GRUPA, 18.643229, 53.506348, 61.800000000000004, 1012.6, 17.333333333333332,2.1,1.15, 2026-07-04 06:54:45,,
SZKOŁA PODSTAWOWA IM. ORŁA BIAŁEGO W KUROWICACH, SZKOLNA, 95-006, KUROWICE, 19.6897942, 51.6648927, 61.63333333333333, 994.7666666666668, 14.266666666666666,1.733333333333333,0.919999999999999, 2026-07-04 06:54:45,,
SZKOŁA PODSTAWOWA IM. POWSTAŃCÓW WIELKOPOLSKICH W BUDZYNIU, ROGOZIŃSKA, 64-840, BUDZYŃ, 16.983885, 52.8847, 65.46666666666665, 1003.4, 14.933333333333332,0.5666666666666661,0.263333333333333, 2026-07-04 06:54:45,,
SZKOŁA PODSTAWOWA W SWORNEGACIACH, SZKOLNA, 89-608, SWORNEGACIE, 17.503073, 53.86227, 77.33333333333333, 1002.7333333333332, 15.466666666666667,0.099999999999999,0.056666666666666, 2026-07-04 06:54:45,,
SZKOŁA PODSTAWOWA IM. ORŁA BIAŁEGO W RASZÓWCE, 1 MAJA, 59-307, RASZÓWKA, 16.18346, 51.30514, 95.96666666666665, 1006.1666666666666, 14.5,0.066666666666666,0.036666666666666, 2026-07-04 06:54:45,,
SZKOŁA PODSTAWOWA IM. TADEUSZA KOŚCIUSZKI W MUNINIE, 3-GO MAJA, 37-514, MUNINA, 22.725977, 49.997936, 56.5, 996.2999999999998, 6.8,68.4,42.61, 2026-07-04 06:54:45,,
SZKOŁA PODSTAWOWA IM. ALEKSANDRA FREDRY W SUROCHOWIE, SUROCHÓW, 37-500, SUROCHÓW, 22.7635, 50.02385, 50.13333333333333, 996.6666666666666, 21.033333333333335,1.933333333333333,1.056666666666666, 2026-07-04 06:54:45,,
SZKOŁA PODSTAWOWA IM. LOTNIKÓW ALIANCKICH W IŁOWEJ, PIASKOWA, 68-120, IŁOWA, 15.20461, 51.50227, 49.5, 993.7000000000002, 16.7,56.0,31.12, 2026-07-04 06:54:45,,
ZESPÓŁ SZKOLNO-PRZEDSZKOLNY W BOŻEJOWICACH, BOŻEJOWICE, 59-700, BOŻEJOWICE, 15.541525, 51.244331, 99.90000000000002, 998.1999999999999, 13.800000000000002,1.633333333333333,0.95, 2026-07-04 06:54:45,,
ZESPÓŁ SZKOLNO-PRZEDSZKOLNY W BRZEŹNIKU, BRZEŹNIK, 59-700, BRZEŹNIK, 15.467881, 51.243537, 56.6, 1003.6999999999999, 13.533333333333333,0.3,0.153333333333333, 2026-07-04 06:54:45,,
SZKOŁA PODSTAWOWA W DĄBROWIE BOLESŁAWIECKIEJ, DĄBROWA BOLESŁAWIECKA, 59-700, DĄBROWA BOLESŁAWIECKA, 15.57337, 51.325929, 74.93333333333334, 997.8000000000001, 15.299999999999999,2.3666666666666663,1.27, 2026-07-04 06:54:45,,
ZESPÓŁ SZKOLNO-PRZEDSZKOLNY W OCICACH, OCICE, 59-730, OCICE, 15.492642, 51.201123, 99.90000000000002, 1002.6666666666666, 13.1,4.5,2.53, 2026-07-04 06:54:45,,
ZESPÓŁ SZKOLNO-PRZEDSZKOLNY W TRZEBIENIU, LEŚNA, 59-700, TRZEBIEŃ, 15.599295, 51.390285, 66.39999999999999, 989.8000000000001, 15.4,1.666666666666666,0.93, 2026-07-04 06:54:45,,
ZESPÓŁ SZKOLNO-PRZEDSZKOLNY W ŻELISZOWIE, ŻELISZÓW, 59-700, ŻELISZÓW, 15.636493, 51.188462, 91.66666666666667, 1002.2666666666668, 13.833333333333334,1.5999999999999992,0.9, 2026-07-04 06:54:45,,
SZKOŁA PODSTAWOWA IM. MARII SKŁODOWSKIEJ-CURIE W KAWĘCZYNIE, KAWĘCZYN, 62-704, KAWĘCZYN, 18.53126, 51.90873, 91.88, 1014.65, 8.93,28.28,16.42, 2026-07-04 06:54:45,,
PUBLICZNA SZKOŁA PODSTAWOWA IM. MARII KONOPNICKIEJ W JORDANOWIE ŚLĄSKIM, WROCŁAWSKA, 55-065, JORDANÓW ŚLĄSKI, 16.8656, 50.8654, 69.03333333333335, 1003.6333333333333, 14.766666666666666,4.4,2.27, 2026-07-04 06:54:45,,
SZKOŁA PODSTAWOWA IM. JANA PAWŁA II W RUDNEJ, PIASKOWA, 59-305, RUDNA, 16.26114, 51.51127, 85.8, 1006.1666666666666, 14.333333333333334,1.833333333333333,0.936666666666666, 2026-07-04 06:54:45,,
SZKOŁA PODSTAWOWA IM. BOHATERÓW WESTERPLATTE W CHOBIENI, SZKOLNA, 59-305, CHOBIENIA, 16.44566, 51.54124, 67.56666666666666, 1008.7666666666668, 13.733333333333334,2.066666666666667,1.113333333333333, 2026-07-04 06:54:45,,
SZKOŁA PODSTAWOWA NR 3 IM. WŁADYSŁAWA BRONIEWSKIEGO W ŚWIEBODZICACH, ŚWIDNICKA, 58-160, ŚWIEBODZICE, 16.322191, 50.859905, 91.66666666666667, 990.9, 13.6,0.6333333333333331,0.343333333333333, 2026-07-04 06:54:45,,
PUBLICZNA SZKOŁA PODSTAWOWA NR 5 IM. WŁADYSŁAWA BRONIEWSKIEGO W NOWEJ SOLI, WALKI MŁODYCH, 67-100, NOWA SÓL, 15.72476, 51.78292, 99.90000000000002, 1012.9666666666667, 14.200000000000001,1.2,0.71, 2026-07-04 06:54:45,,
ZESPÓŁ EDUKACYJNY W KOLSKU, PIASTOWSKA, 67-415, KOLSKO, 15.961961, 51.960693, 88.33999999999999, 1020.57, 9.94,37.83,22.350000000000005, 2026-07-04 06:54:45,,
SZKOŁA PODSTAWOWA NR 3 IM. MARII KONOPNICKIEJ W KOLE, TORUŃSKA, 62-600, KOŁO, 18.63092, 52.201656, 99.90000000000002, 1007.7666666666668, 14.1,51.66666666666666,29.69333333333333, 2026-07-04 06:54:45,,
SZKOŁA PODSTAWOWA IM. JANA PAWŁA II W MIKORZYNIE, MIKORZYN, 63-600, MIKORZYN, 18.026148, 51.36473, 71.1, 994.0, 20.9,0.2,0.11, 2026-07-04 06:54:45,,
SZKOŁA PODSTAWOWA NR 1 IM. BOHATERÓW WESTERPLATTE W KĘPNIE, HENRYKA SIENKIEWICZA, 63-600, KĘPNO, 17.987194, 51.27619, 72.2, 1007.9, 18.2,0.5666666666666661,0.33, 2026-07-04 06:54:45,,
SZKOŁA PODSTAWOWA IM. JANA PAWŁA II W LIPNICY WIELKIEJ, LIPNICA WIELKA, 33-323, LIPNICA WIELKA, 20.86532, 49.70755, 94.0, 985.0, 16.9,28.3,15.62, 2026-07-04 06:54:45,,
SZKOŁA PODSTAWOWA IM. PREZYDENTA GABRIELA NARUTOWICZA W CZĄSTKOWIE MAZOWIECKIM, CZĄSTKÓW MAZOWIECKI, 05-152, CZĄSTKÓW MAZOWIECKI, 20.746943, 52.39131, 67.66666666666667, 1006.7333333333332, 16.3,15.9,8.736666666666666, 2026-07-04 06:54:45,,
SZKOŁA PODSTAWOWA IM. PIERREA DE COUBERTINA W BUDACH SIENNICKICH, BUDY SIENNICKIE, 05-190, BUDY SIENNICKIE, 20.787657, 52.544962, 99.90000000000002, 994.3000000000001, 16.233333333333334,1.099999999999999,0.603333333333333, 2026-07-04 06:54:45,,
SZKOŁA PODSTAWOWA IM. JANA BRZECHWY W SZKLARACH GÓRNYCH, SZKLARY GÓRNE, 59-335, SZKLARY GÓRNE, 16.08945, 51.44225, 99.90000000000002, 1009.6999999999999, 12.666666666666666,0.6000000000000001,0.336666666666666, 2026-07-04 06:54:45,,
SAMORZĄDOWA SZKOŁA PODSTAWOWA W GÓRNYCH GRĄDACH, GÓRNE GRĄDY, 62-310, GÓRNE GRĄDY, 17.74012, 52.11447, 99.90000000000002, 1010.2800000000001, 20.5,2.799999999999999,1.5599999999999992, 2026-07-04 06:54:45,,
SZKOŁA PODSTAWOWA IM. KRZYSZTOFA KAMILA BACZYŃSKIEGO W CIĄŻENIU, WOLNOŚCI, 62-404, CIĄŻEŃ, 17.816093, 52.21152, 99.90000000000002, 1000.2000000000002, 23.8,8.3,4.28, 2026-07-04 06:54:45,,
SZKOŁA PODSTAWOWA NR 1 IM. STRAJKU DZIECI KOŹMIŃSKICH 1906/1907 W KOŹMINIE WIELKOPOLSKIM, GLINKI, 63-720, KOŹMIN WIELKOPOLSKI, 17.45651, 51.82566, 88.5, 1007.1, 13.300000000000002,19.5,11.76, 2026-07-04 06:54:45,,
SZKOŁA PODSTAWOWA SPORTOWA NR 6 W EŁKU, SUWALSKA, 19-300, EŁK, 22.365547, 53.82862, 63.833333333333336, 1003.4, 15.133333333333333,2.5,1.276666666666666, 2026-07-04 06:54:45,,
SZKOŁA PODSTAWOWA NR 6 IM. JANA PAWŁA II W STAROGARDZIE GDAŃSKIM, BP. DOMINIKA, 83-250, STAROGARD GDAŃSKI, 18.491356, 53.98333, 75.8, 1005.0333333333333, 16.400000000000002,0.533333333333333,0.283333333333333, 2026-07-04 06:54:45,,
PUBLICZNA SZKOLA PODSTAWOWA IM. BOHATEROW OŚWIĘCIMSKICH W RUDZICZCE, WOSZCZYCKA, 43-267, RUDZICZKA (SUSZEC), 18.7549, 50.03935, 61.86666666666667, 1008.0666666666666, 16.333333333333332,0.6333333333333331,0.326666666666666, 2026-07-04 06:54:45,,
ZESPÓŁ SZKÓŁ TECHNICZNYCH W KOLE, KOLEJOWA, 62-600, KOŁO, 18.62956, 52.2088, 60.333333333333336, 1004.6333333333333, 14.866666666666667,0.5,0.25, 2026-07-04 06:54:45,,
PUBLICZNA SZKOŁA PODSTAWOWA NR 2 IM. KAZIMIERZA PUŁASKIEGO W WARCE, POLNA, 05-660, WARKA, 21.188357, 51.78638, 60.56666666666666, 1000.7666666666668, 15.566666666666668,2.833333333333333,1.6800000000000002, 2026-07-04 06:54:45,,
SZKOŁA PODSTAWOWA NR 2 IM. STEFANA STARZYŃSKIEGO W NASIELSKU, KOŚCIUSZKI, 05-190, NASIELSK, 20.801001, 52.589717, 60.73333333333333, 1000.6666666666666, 15.966666666666667,2.5,1.543333333333333, 2026-07-04 06:54:45,,
ZESPÓŁ SZKOLNO-PRZEDSZKOLNY W KAZUNIU NOWYM, GŁÓWNA, 05-152, KAZUŃ NOWY, 20.68265, 52.419853, 58.36666666666667, 1014.1999999999999, 16.46666666666667,1.066666666666666,0.553333333333333, 2026-07-04 06:54:45,,
SZKOŁA PODSTAWOWA IM. MIKOŁAJA KOPERNIKA W CIEKSYNIE, MARSZ. JÓZEFA PIŁSUDSKIEGO, 05-192, CIEKSYN, 20.666605, 52.572132, 91.43333333333334, 1001.5333333333333, 16.566666666666666,0.133333333333333,0.073333333333333, 2026-07-04 06:54:45,,
SZKOŁA PODSTAWOWA NR 5 IM MIKOŁAJA KOPERNIKA W CZECHOWICACH-DZIEDZICACH, KLASZTORNA, 43-502, CZECHOWICE-DZIEDZICE, 19.003326, 49.908154, 65.06666666666666, 1003.5333333333333, 15.9,8.166666666666666,4.986666666666667, 2026-07-04 06:54:45,,
SZKOŁA PODSTAWOWA IM. KS. JÓZEFA LONDZINA W ZABRZEGU, KAROLA PYTLA, 43-516, ZABRZEG, 18.9401, 49.91564, 71.93333333333334, 1025.8999999999999, 13.233333333333334,2.533333333333333,1.296666666666666, 2026-07-04 06:54:45,,
GMINNE PRZEDSZKOLE W NOWEJ WSI, UL. GŁÓWNA, 05-806, NOWA WIEŚ, 20.793608032839607, 52.14079879793492, 61.800000000000004, 1010.9666666666667, 15.733333333333334,1.7666666666666662,1.053333333333333, 2026-07-04 06:54:45,,
SZKOŁA PODSTAWOWA IM. JANA PAWŁA II W MICHAŁOWICACH, UL. SZKOLNA, 05-816, MICHAŁOWICE, 20.8894743996203, 52.16806240949327, 60.73333333333333, 1008.9333333333334, 16.166666666666668,19.966666666666665,11.55, 2026-07-04 06:54:45,,
SZKOŁA PODSTAWOWA IM. MARII DĄBROWSKIEJ W KOMOROWIE, UL. M. DĄBROWSKIEJ, 05-806, KOMORÓW, 20.814969926602924, 52.14696671968943, 64.66666666666667, 1009.1666666666666, 16.633333333333336,0.7000000000000001,0.369999999999999, 2026-07-04 06:54:45,,
SZKOŁA PODSTAWOWA IM. MIKOŁAJA KOPERNIKA W NOWEJ WSI, UL. GŁÓWNA, 05-806, NOWA WIEŚ, 20.80065871311049, 52.134787344746286, 61.800000000000004, 1010.9666666666667, 15.733333333333334,1.7666666666666662,1.053333333333333, 2026-07-04 06:54:45,,
GMINNE PRZEDSZKOLE W MICHAŁOWICACH, UL. SZKOLNA, 05-816, MICHAŁOWICE, 20.8908240883606, 52.16924425690457, 60.73333333333333, 1008.9333333333334, 16.166666666666668,19.966666666666665,11.55, 2026-07-04 06:54:45,,
ZESPÓŁ SZKOLNO-PRZEDSZKOLNY W SMOŁDZINIE, BOHATERÓW WARSZAWY, 76-214, SMOŁDZINO, 17.217509899999996, 54.66198055959346, 99.90000000000002, 1014.6, 15.366666666666667,3.1,1.7033333333333331, 2026-07-04 06:54:45,,
ZESPÓŁ SZKOLNO- PRZEDSZKOLNY W\xa0DOBRZYKOWICACH, UL. SUKCESU, 55-002, DOBRZYKOWICE, 17.185415, 51.092059, 99.90000000000002, 997.9, 13.833333333333334,2.7,1.376666666666666, 2026-07-04 06:54:45,,
SZKOŁA PODSTAWOWA IM. PIASTÓW ŚLĄSKICH W CHRZĄSTAWIE WIELKIEJ, UL. WROCŁAWSKA, 55-003, CZERNICA, 17.292154, 51.092542, 71.2, 993.3666666666667, 31.0,2.4666666666666672,1.4733333333333332, 2026-07-04 06:54:45,,
ZESPÓŁ SZKOLNO-PRZEDSZKOLNY IM. PAPIEŻA JANA PAWŁA II W CZERNICY, UL. ŚW. BRATA ALBERTA ADAMA CHMIELOWSKIEGO\xa0, 55-003, CZERNICA, 17.248533,  51.0473805, 75.5, 1009.6999999999999, 14.433333333333332,0.333333333333333,0.203333333333333, 2026-07-04 06:54:45,,
SZKOŁA PODSTAWOWA IM. JANUSZA KORCZAKA W RATOWICACH, UL. WROCŁAWSKA, 55-003, CZERNICA, 17.266850,  51.033897, 73.7, 993.6, 14.033333333333333,1.8666666666666671,1.063333333333333, 2026-07-04 06:54:45,,
SZKOŁA PODSTAWOWA IM. BOLESŁAW KRZYWOUSTEGO W KAMIEŃCU WROCŁAWSKIM, UL. KOLEJOWA, 55-002, KAMIENIEC WROCŁAWSKI, 17.173628,  51.077638, 91.33333333333333, 997.4, 14.266666666666666,2.833333333333333,1.456666666666666, 2026-07-04 06:54:45,,
SZKOŁA PODSTAWOWA NR 4 IM. JANA MEJSTERA W SŁOMCZYNIE, WILANOWSKA, 05-520, KONSTANCIN-JEZIORNA, 21.15329336951058, 52.060898677662806, 81.3, 993.7333333333332, 14.666666666666666,4.366666666666666,2.59, 2026-07-04 06:54:45,,
PUBLICZNA SZKOŁA PODSTAWOWA W TOMASZOWIE, LEŚNA, 68-114, TOMASZÓW, 15.404658513741197, 51.622513710796575, 74.39999999999999, 997.3000000000001, 13.0,2.433333333333333,1.156666666666666, 2026-07-04 06:54:45,,
SZKOŁA PODSTAWOWA NR 29 W LUBLINIE, WAJDELOTY, 20-604, LUBLIN, 22.5237824136724, 51.2433286093504, 39.0, 998.0, 24.2,3.0,2.0, 2026-07-04 06:54:45,,
SZKOŁA PODSTAWOWA W SZKODNEJ, None, 39-126, SZKODNA, 21.6475593266686, 49.9841839576423, 54.760000000000005, 981.14, 17.5,1.86,1.72, 2026-07-04 06:54:45,,
SZKOŁA PODSTAWOWA IM. MARII KONOPNICKIEJ W MŁODOWIE, UL. SZKOLNA, 37-600, MŁODÓW, 23.1625474248211, 50.1612772043517, 51.51666666666667, 992.0, 14.466666666666667,4.583333333333333,4.333333333333333, 2026-07-04 06:54:45,,
SZKOŁA PODSTAWOWA W SIEDLISKACH, SIEDLISKA, 37-731, PRZEMYŚL, 22.8836889838114, 49.7739137681101, 54.300000000000004, 991.0, 16.033333333333335,2.666666666666666,2.416666666666666, 2026-07-04 06:54:45,,
SZKOŁA PODSTAWOWA NR 3 IM. JANA PAWŁA II W ROPCZYCACH, 3 MAJA, 39-100, ROPCZYCE, 21.5832672438671, 50.0389694490123, 55.949999999999996, 993.0, 15.625,3.416666666666666,3.0, 2026-07-04 06:54:45,,
SZKOŁA PODSTAWOWA NR 2 IM. BŁ. JANA PAWŁA II W LIBIĄŻU, PLAC ZWYCIĘSTWA, 32-590, LIBIĄŻ, 19.3064540609702, 50.0995764389139, 67.61666666666666, 987.0, 12.883333333333333,3.666666666666666,3.166666666666666, 2026-07-04 06:54:45,,
SZKOŁA PODSTAWOWA NR 2  IM. KAZIMIERZA BRODZIŃSKIEGO W BOCHNI, ORACKA, 32-700, BOCHNIA, 20.4250867479996, 49.9702658831946, 53.449999999999996, 993.0, 17.150000000000002,2.833333333333333,2.666666666666666, 2026-07-04 06:54:45,,
SZKOŁA PODSTAWOWA NR 1 IM. WŁADYSŁAWA JAGIEŁŁY W OSIEKU, GŁÓWNA, 32-608, OSIEK, 19.2631410879493, 49.9511789367323, 60.70000000000001, 983.0, 21.0,2.0,1.0, 2026-07-04 06:54:45,,
SZKOŁA PODSTAWOWA IM. KAZIMIERZA GÓRSKIEGO W ŁOZINIE, MILICKA, 55-095, ŁOZINA, 17.180298682797538, 51.23388117656271, 95.33333333333333, 1002.9666666666667, 12.933333333333332,16.033333333333335,9.013333333333334, 2026-07-04 06:54:45,,
PRZEDSZKOLE W KIEŁCZOWIE, WROCŁAWSKA, 55-093, KIEŁCZÓW, 17.19065006929958, 51.1371047031024, 74.73333333333333, 1001.4, 16.033333333333335,2.266666666666667,1.266666666666666, 2026-07-04 06:54:45,,
PRZEDSZKOLE W BLIZNEM JASIŃSKIEGO, UL. TADEUSZA KOŚCIUSZKI, 05-082, BLIZNE JASIŃSKIEGO, 20.881159640505192, 52.2438730196329, 57.699999999999996, 1009.8666666666667, 16.46666666666667,1.466666666666666,0.779999999999999, 2026-07-04 06:54:45,,
ZESPÓŁ SZKÓŁ W PRUDNIKU, UL. DĄBROWSKIEGO, 48-200, PRUDNIK, 17.571637628835184, 50.32109542835716, 76.2, 992.6999999999999, 16.7,0.366666666666666,0.19, 2026-07-04 06:54:45,,
PRZEDSZKOLE MIŚ USZATEK W OSTROROGU, UL. WRONIECKA, 64-560, OSTRORÓG, 16.446531842328756, 52.62862454862175, 99.90000000000002, 1006.9, 13.699999999999998,1.033333333333333,0.48, 2026-07-04 06:54:45,,
SZKOŁA PODSTAWOWA NR 2 IM. GUSTAWA MORCINKA W TOSZKU, UL. WILKOWICKA, 44-180, TOSZEK, 18.527405971163624, 50.454108128948924, 87.53333333333335, 994.0333333333333, 14.9,1.8,1.016666666666666, 2026-07-04 06:54:45,,
SZKOŁA PODSTAWOWA IM. KAWALERÓW ORDERU UŚMIECHU W CZERSKU, UL. WARSZAWSKA, 05-530, CZERSK, 21.227091274384716, 51.96063591615556 , 61.333333333333336, 1000.5583333333334, 16.85833333333333,4.416666666666667,3.975, 2026-07-04 06:54:45,,
PUBLICZNA SZKOŁA PODSTAWOWA IM. JANA PAWŁA II W ROSZOWICKIM LESIE, UL. SZKOLNA, 47-253, ROSZOWICKI LAS, 18.21990066, 50.26168468, 66.28333333333333, 998.0916666666667, 15.916666666666666,2.324999999999999,1.833333333333333, 2026-07-04 06:54:45,,
SZKOŁA PODSTAWOWA IM. KS. JANA TWARDOWSKIEGO W RACIMIERZU, UL. NIEPODLEGŁOŚCI, 72-111, RACIMIERZ, 14.65747308, 53.7423708, 68.3, 1015.7833333333333, 15.591666666666667,2.716666666666667,2.133333333333333, 2026-07-04 06:54:45,,
I KATOLICKIE SPOŁECZNE LICEUM OGÓLNOKSZTAŁCACE IM.ŚW.BRATA ALBERTA CHMIELOWSKIEGO W PUŁAWACH, UL. STANISŁAWA EUSTACHIEWICZA, 24-100, PUŁAWY, 21.95614207, 51.41935824, 65.825, 998.4583333333334, 15.991666666666667,2.333333333333333,2.058333333333333, 2026-07-04 06:54:45,,
TECHNIKUM NR 4 W ZESPOLE SZKÓŁ TECHNICZNYCH IM.M. SKŁODOWSKIEJ-CURIE W PUŁAWACH, UL. WOJSKA POLSKIEGO, 24-100, PUŁAWY, 21.97667461, 51.41823622, 66.98333333333333, 997.9250000000001, 15.9,3.591666666666667,2.633333333333333, 2026-07-04 06:54:45,,
SZKOŁA PODSTAWOWA NR 2 IM. KRZYSZTOFA KAMILA BACZYŃSKIEGO W PUŁAWACH, AL. MAŁA, 24-100, PUŁAWY, 21.96276919, 51.41579363, 64.51666666666667, 997.775, 16.166666666666668,3.383333333333333,2.508333333333333, 2026-07-04 06:54:45,,
SZKOŁA PODSTAWOWA NR 4 IM. PAPIEŻA JANA PAWŁA II W ŁĘCZNEJ, UL. JAŚMINOWA, 21-010, ŁĘCZNA, 22.88259013, 51.29206273, 73.4, 994.3444444444444, 14.755555555555556,2.844444444444444,2.477777777777778, 2026-07-04 06:54:45,,
SZKOŁA PODSTAWOWA IM.JOACHIMA LELEWELA W JAKUBOWICACH KONIŃSKICH, UL. SZKOLNA, 21-003, JAKUBOWICE KONIŃSKIE, 22.52628594, 51.31010447, 70.89999999999999, 992.0636363636364, 13.9,2.009090909090909,1.809090909090908, 2026-07-04 06:54:45,,
SZKOŁA PODSTAWOWA W KŁODNICY DOLNEJ, None, 24-224, KŁODNICA DOLNA, 22.28477957, 51.06632652, 76.85833333333333, 991.3083333333333, 13.216666666666667,2.75,1.75, 2026-07-04 06:54:45,,
SZKOŁA PODSTAWOWA NR 6 IM. IRENY SENDLEROWEJ W CHEŁMIE, UL. POWSTAŃCÓW WARSZAWY, 22-100, CHEŁM, 23.479142939944662, 51.126339150220325 , 70.19166666666668, 990.225, 15.1,2.4,1.825, 2026-07-04 06:54:45,,
SZKOŁA PODSTAWOWA NR 4 IM. KORNELA MAKUSZYŃSKIEGO W BIAŁEJ PODLASKIEJ, UL. STANISŁAWA MONIUSZKI, 21-500, BIAŁA PODLASKA, 23.1240646, 52.03658476, 60.8, 995.9, 16.3,3.6,2.4, 2026-07-04 06:54:45,,
SZKOŁA PODSTAWOWA IM.KSIĘDZA JANA TWARDOWSKIEGO W CZACHÓWKU, UL. GŁÓWNA, 05-530, CZACHÓWEK, 21.0884246, 51.96101922, 71.82000000000001, 1002.1700000000001, 15.89,5.63,4.470000000000001, 2026-07-04 06:54:45,,
LICEUM OGÓLNOKSZTAŁCĄCE W LIPSKU, UL. ZWOLEŃSKA, 27-300, LIPSKO, 21.65162688, 51.16209825, 71.075, 995.6, 14.2375,2.775,2.05, 2026-07-04 06:54:45,,
TECHNIKUM NR 2 W GARWOLINIE, UL. ŻOŁNIERZY II ARMII WOJSKA POLSKIEGO, 08-400, GARWOLIN, 21.5953052, 51.89704263, 64.60000000000001, 999.1416666666668, 16.641666666666666,4.575,3.166666666666666, 2026-07-04 06:54:45,,
PUBLICZNA SZKOŁA PODSTAWOWA IM. O. STANISŁAWA PAPCZYŃSKIEGO W MARIAŃSKIM PORZECZU, None, 08-470, MARIAŃSKIE PORZECZE, 21.33261521, 51.88402213, 62.25833333333333, 1002.3666666666667, 17.008333333333333,4.708333333333333,3.691666666666666, 2026-07-04 06:54:45,,
SZKOŁA MUZYCZNA I ST. W GARWOLINIE, UL. JANA PAWŁA II, 08-400, GARWOLIN, 21.61280145, 51.89874672, 62.32727272727273, 998.3909090909091, 17.036363636363635,4.509090909090909,3.109090909090909, 2026-07-04 06:54:45,,
SZKOŁA PODSTAWOWA NR 2 W KONSTANCINIE-JEZIORNEJ, UL. STEFANA ŻEROMSKIEGO, 05-510, KONSTANCIN-JEZIORNA, 21.12317779, 52.07946519, 62.96666666666667, 1002.4666666666667, 16.808333333333334,2.9666666666666672,2.108333333333333, 2026-07-04 06:54:45,,
TECHNIKUM NR 2 IM. EMILII PLATER W PIASECZNIE, UL. ALEJA BRZÓZ, 05-501, PIASECZNO, 21.02070292, 52.0540252, 68.55, 1002.975, 16.783333333333335,5.133333333333334,3.783333333333333, 2026-07-04 06:54:45,,
PUBLICZNA SZKOŁA PODSTAWOWA IM.KORNELA MAKUSZYŃSKIEGO W UGNIEWIE, UL. SZKOLNA, 07-300, UGNIEWO, 21.91017286, 52.8032487, 61.93333333333334, 998.2000000000002, 16.533333333333335,3.166666666666666,2.2, 2026-07-04 06:54:45,,
SZKOŁA PODSTAWOWA NR 2 IM. FRYDERYKA CHOPINA W MALKINI GÓRNEJ, UL. LEŚNA, 07-320, MAŁKINIA GÓRNA, 22.05928062, 52.6945031, 65.38333333333334, 1000.6, 16.716666666666665,2.983333333333333,2.183333333333333, 2026-07-04 06:54:45,,
SZKOŁA PODSTAWOWA IM. BŁOGOSŁAWIONEGO OJCA STANISŁAWA PAPCZYŃSKIEGO W KĄTACH, UL. PUŁAWSKA, 05-532, KĄTY, 21.17263735, 52.00208981, 62.30833333333334, 1000.5583333333334, 16.216666666666665,4.266666666666667,3.3666666666666663, 2026-07-04 06:54:45,,
TECHNIKUM GASTRONOMICZNE W GDYNI, UL. MORSKA, 81-222, GDYNIA, 18.51581066, 54.52508818, 78.75, 1009.2083333333334, 16.0,5.908333333333334,3.666666666666666, 2026-07-04 06:54:45,,
SZKOŁA PODSTAWOWA W ZŁOTOKŁOSIE, UL. TRAUGUTTA, 05-504, ZŁOTOKŁOS, 20.90784407, 52.00962311, 70.56666666666666, 1001.3333333333334, 15.816666666666668,4.55,3.116666666666666, 2026-07-04 06:54:45,,
SZKOŁA PODSTAWOWA IM. FELIKSA KAPACKIEGO W CENDROWICACH, UL. SZKOLNA, 05-530, CENDROWICE, 21.13239127, 51.96755856, 58.300000000000004, 998.7333333333332, 17.425,5.883333333333333,4.75, 2026-07-04 06:54:45,,
II LICEUM OGÓLNOKSZTAŁCĄCE IM. EMILII PLATER W BIAŁEJ PODLASKIEJ, UL. GABRIELA NARUTOWICZA, 21-500, BIAŁA PODLASKA, 23.1217813, 52.03188711, 64.06666666666666, 998.3333333333334, 15.833333333333334,1.466666666666666,0.5, 2026-07-04 06:54:45,,
SZKOŁA PODSTAWOWA W BIAŁUSNYM LASKU, None, 07-430, BIAŁUSNY LASEK, 21.30430342, 53.35698702, 63.76666666666667, 997.1166666666667, 16.90833333333333,3.6999999999999993,2.333333333333333, 2026-07-04 06:54:45,,
SZKOŁA PODSTAWOWA IM. KS. JANA TWARDOWSKIEGO W GLINIE, None, 07-320, GLINA, 21.95984362, 52.6962338, 62.10833333333333, 998.7333333333332, 16.525000000000002,3.358333333333333,2.341666666666667, 2026-07-04 06:54:45,,
PUBLICZNE TECHNIKUM LEŚNE ZESPOŁU SZKÓŁ W TUŁOWICACH, UL. ZAMKOWA, 49-130, TUŁOWICE, 17.65698382, 50.59142765, 66.27499999999999, 1000.6416666666668, 15.391666666666667,2.05,1.608333333333333, 2026-07-04 06:54:45,,
SZKOŁA PODSTAWOWA NR 1 IM.KAROLA MIARKI W RYDUŁTOWACH, UL. ŚW. MAKSYMILIANA KOLBE, 44-280, RYDUŁTOWY, 18.41959735, 50.05843382, 70.81666666666666, 988.1916666666666, 15.491666666666667,1.549999999999999,1.4, 2026-07-04 06:54:45,,
TECHNIKUM W PSZOWIE, UL. ROMUALDA TRAUGUTTA, 44-370, PSZÓW, 18.40378202, 50.0419266, 67.68333333333334, 982.7333333333332, 15.25,2.658333333333333,2.308333333333333, 2026-07-04 06:54:45,,
SZKOŁA PODSTAWOWA ZESPOŁU SZKÓŁ IM. BOLESŁAWA CHROBREGO W NIEMODLINIE, UL. OPOLSKA , 49-100, NIEMODLIN, 17.63285173, 50.64185007, 70.575, 1001.4666666666667, 15.066666666666668,2.208333333333333,1.816666666666666, 2026-07-04 06:54:45,,
TECHNIKUM W RYDUŁTOWACH, UL. OBYWATELSKA, 44-280, RYDUŁTOWY, 18.42658537, 50.07171957, 62.69166666666666, 984.1166666666667, 17.233333333333334,1.95,1.65, 2026-07-04 06:54:45,,
SZKOŁA PODSTAWOWA IM.KARDYNAŁA STEFANA WYSZYŃSKIEGO W TELATYNIE, UL. KARDYNAŁA STEFANA WYSZYŃSKIEGO, 22-652, TELATYN, 23.8446095, 50.52250671, 70.61666666666666, 987.9083333333333, 14.566666666666668,2.4666666666666672,2.016666666666666, 2026-07-04 06:54:45,,
TECHNIKUM NR 1 W ŚWIDNIKU, UL. SZKOLNA, 21-045, ŚWIDNIK, 22.69752657, 51.22672919, 64.10000000000001, 989.1166666666667, 15.299999999999999,2.008333333333333,1.7249999999999992, 2026-07-04 06:54:45,,
SZKOŁA PODSTAWOWA W OŁDAKACH, None, 07-411, OŁDAKI, 21.692978, 53.095518, 70.47999999999999, 1000.9799999999999, 16.119999999999997,1.92,1.4300000000000002, 2026-07-04 06:54:45,,
SZKOŁA PODSTAWOWA IM.J.WYBICKIEGO W POLNICY, None, 77-300, POLNICA, 17.40057712, 53.75198216, 76.625, 998.2999999999998, 14.391666666666666,4.341666666666667,2.8249999999999997, 2026-07-04 06:54:45,,
SZKOŁA PODSTAWOWA W RAJKOWACH W ZESPOLE KSZTAŁCENIA I WYCHOWANIA W RAJKOWACH, UL. JESIONOWA, 83-130, RAJKOWY, 18.7092112, 53.9610738, 76.69166666666666, 1005.3499999999999, 14.883333333333333,5.616666666666667,3.458333333333333, 2026-07-04 06:54:45,,
LICEUM OGÓLNOKSZTAŁCĄCE W REDZIE, UL. ŁĄKOWA, 84-240, REDA, 18.3577379, 54.60185, 81.94166666666666, 1010.6, 15.008333333333333,7.308333333333334,4.616666666666666, 2026-07-04 06:54:45,,
SZKOŁA PODSTAWOWA IM. MARYNARKI WOJENNEJ RP W OSTASZEWIE, UL. KOŚCIUSZKI, 82-112, OSTASZEWO, 18.9507202, 54.2131383, 74.96666666666667, 1011.375, 16.416666666666668,6.358333333333333,3.916666666666666, 2026-07-04 06:54:45,,
TECHNIKUM NR 2 W BYTOWIE, UL. HIERONIMA DERDOWSKIEGO, 77-100, BYTÓW, 17.48812443, 54.16585829, 80.33333333333333, 998.1666666666666, 14.158333333333333,4.175,2.766666666666667, 2026-07-04 06:54:45,,
SZKOŁA PODSTAWOWA W ZIELINIE, UL. PRUDNICKA, 47-370, ZIELINA, 17.7989291, 50.4408404, 66.73333333333333, 997.3166666666666, 15.266666666666666,2.4,1.9083333333333328, 2026-07-04 06:54:45,,
SZKOŁA PODSTAWOWA STOWARZYSZENIA ZŁOTY POTOK W ŁĄCE PRUDNICKIEJ, UL. GŁUCHOŁASKA, 48-200, ŁĄKA PRUDNICKA, 17.528406, 50.313494, 57.50909090909091, 986.2181818181817, 16.799999999999997,2.5,1.9090909090909087, 2026-07-04 06:54:45,,
SZKOŁA PODSTAWOWA W ŁUBNIE, None, 77-140, ŁUBNO, 17.22653098, 54.15365707, 79.10833333333333, 997.225, 14.108333333333333,4.616666666666666,2.733333333333333, 2026-07-04 06:54:45,,
PUBLICZNA SZKOŁA PODSTAWOWA IM. EDMUNDA DYWELSKIEGO W ZBLEWIE, UL. KASZTELAŃSKA, 83-210, BYTONIA, 18.28590547, 53.9203933, 75.95833333333333, 997.4166666666666, 14.725,5.274999999999999,3.408333333333333, 2026-07-04 06:54:45,,
LICEUM OGÓLNOKSZTAŁCĄCE W CZŁUCHOWIE, UL. JANUSZA KUSOCIŃSKIEGO, 77-300, CZŁUCHÓW, 17.36617595, 53.66292375, 75.39166666666667, 995.2833333333333, 14.866666666666667,3.816666666666666,2.358333333333333, 2026-07-04 06:54:45,,
SZKOŁA PODSTAWOWA NR 3 IM. MARII KONOPNICKIEJ W BIAŁEJ PODLASKIEJ, UL. SPORTOWA, 21-500, BIAŁA PODLASKA, 23.119378, 52.022177, 61.583333333333336, 995.1583333333333, 17.233333333333334,2.775,2.166666666666666, 2026-07-04 06:54:45,,
PUBLICZNA SZKOŁA PODSTAWOWA IM. KSIĘDZA JANA TWARDOWSKIEGO W JANUSZKOWICACH, UL. LESIAŃSKA, 47-330, JANUSZKOWICE, 18.1356599, 50.3898439, 65.41428571428571, 998.7142857142857, 15.799999999999999,1.971428571428571,1.585714285714285, 2026-07-04 06:54:45,,
SZKOŁA PODSTAWOWA IM. MARII SKŁODOWSKIEJ-CURIE W ALWERNI, UL. MARII SKŁODOWSKIEJ-CURIE, 32-566, ALWERNIA, 19.542471211821844, 50.06505227372774, 71.65833333333333, 982.5083333333333, 14.083333333333334,3.666666666666666,3.141666666666667, 2026-07-04 06:54:45,,
SZKOŁA PODSTAWOWA IM. MIKOŁAJA KOPERNIKA W BALINIE, UL. JAWORZNICKA, 32-500, BALIN, 19.373681797572548, 50.171073102747464 , 74.87777777777778, 981.8555555555554, 13.822222222222223,2.833333333333333,2.166666666666666, 2026-07-04 06:54:45,,
TECHNIKUM NR 2 IM. BOHATERÓW WESTERPLATTE W KLUCZBORKU, UL. BYCZYŃSKA, 46-200, KLUCZBORK, 18.20597356, 50.97669665, 71.99166666666666, 996.9499999999999, 14.275,2.058333333333333,1.858333333333333, 2026-07-04 06:54:45,,
PUBLICZNA SZKOŁA PODSTAWOWA IM.HALINY SEMENOWICZ W MOSZCZANCE, None, 48-200, MOSZCZANKA, 17.483901, 50.295686, 65.70833333333333, 983.4250000000001, 15.375,1.7833333333333332,1.583333333333333, 2026-07-04 06:54:45,,
BRANŻOWA SZKOŁA I STOPNIA W ŁASKARZEWIE, UL. KOLEJOWA, 08-450, ŁASKARZEW, 21.599958, 51.788404, 68.80000000000001, 997.5333333333333, 16.166666666666668,4.6,3.099999999999999, 2026-07-04 06:54:45,,
SZKOŁA PODSTAWOWA IM.ŻWIRKI I WIGURY W RADOCZY, UL. DĘBOWA, 34-100, RADOCZA, 19.4703966, 49.9176909, 68.53999999999999, 985.8699999999999, 16.36,2.32,1.739999999999999, 2026-07-04 06:54:45,,
SZKOŁA PODSTAWOWA NR 5 IM. MARII KONOPNICKIEJ W CHEŁMIE, UL. I PUŁKU SZWOLEŻERÓW, 22-100, CHEŁM, 23.481093, 51.134591, 66.25, 990.7000000000002, 15.866666666666667,2.3666666666666663,1.816666666666666, 2026-07-04 06:54:45,,
LICEUM OGÓLNOKSZTAŁCĄCE IM. KS. J. ST. PASIERBA W PELPLINIE, UL. SAMBORA, 83-130, PELPLIN, 18.6979422, 53.9283135, 77.17999999999999, 1007.29, 14.99,5.18,3.31, 2026-07-04 06:54:45,,
TECHNIKUM W GŁOGÓWKU, UL. POWSTAŃCÓW, 48-250, GŁOGÓWEK, 17.86435, 50.35349, 65.64166666666667, 994.875, 15.5,2.275,1.716666666666666, 2026-07-04 06:54:45,,
SZKOŁA PODSTAWOWA NR 2 IM. KS. STANISŁAWA STASZICA W CHEŁMIE, UL. OBŁOŃSKA, 22-100, CHEŁM, 23.47575683, 51.13815167, 64.925, 992.1, 15.966666666666667,2.775,2.308333333333333, 2026-07-04 06:54:45,,
SZKOŁA PODSTAWOWA NR 8 IM. BOLESŁAWA ZYGMUNTA WIRSKIEGO W CHEŁMIE, UL. POŁANIECKA, 22-100, CHEŁM, 23.477306, 51.123224, 68.3, 990.3249999999999, 15.275,2.6999999999999997,2.133333333333333, 2026-07-04 06:54:45,,
SZKOŁA PODSTAWOWA NR 10 Z ODDZIAŁAMI INTEGRACYJNYMI IM. WALERIANA ŁUKASIŃSKIEGO W ZAMOŚCIU, UL. PEOWIAKÓW, 22-400, ZAMOŚĆ, 23.256959617892495, 50.72103172968299 , 68.06666666666666, 988.7888888888889, 14.377777777777778,3.522222222222222,2.633333333333333, 2026-07-04 06:54:45,,
ZESPÓŁ SZKÓŁ GMINNYCH IM. HENRYKA SIENKIEWICZA W BOGUCICACH SZKOŁA PODSTAWOWA W BOGUCICACH, None, 32-711, BOGUCICE, 20.498337, 50.057389, 68.65833333333333, 997.3083333333333, 16.083333333333332,1.875,1.55, 2026-07-04 06:54:45,,
PUBLICZNA SZKOŁA PODSTAWOWA W NIEDZIELISKACH, None, 32-820, NIEDZIELISKA, 20.632091271164818, 50.09115399071606, 65.53333333333333, 995.3916666666665, 16.166666666666668,2.525,2.225, 2026-07-04 06:54:45,,
TECHNIKUM W ZESPOLE SZKÓŁ AGROBIZNESU IM.MACIEJA RATAJA W KLEMENTOWICACH, None, 24-170, KLEMENTOWICE, 22.113069, 51.362926, 72.08333333333333, 994.8916666666665, 13.799999999999999,0.9,0.433333333333333, 2026-07-04 06:54:45,,
PUBLICZNA SZKOŁA PODSTAWOWA IM. KAZIMIERZA RASŁAWSKIEGO W BORZECHOWIE , None, 24-224, BORZECHÓW-KOLONIA, 22.2853918, 51.09246552, 69.19999999999999, 990.5222222222224, 14.755555555555556,2.388888888888889,1.8111111111111111, 2026-07-04 06:54:45,,
SZKOŁA PODSTAWOWA NR 117 IM. KRAKOWSKIEJ KONGREGACJI KUPIECKIEJ W KRAKOWIE, UL. JANA KURCZABA, 30-868, KRAKÓW-PODGÓRZE, 20.006872057670375, 50.01317838097981, 65.075, 993.1416666666668, 15.975,2.483333333333333,2.125, 2026-07-04 06:54:45,,
VI LICEUM OGÓLNOKSZTAŁCĄCE IM. HUGONA KOŁŁĄTAJA W LUBLINIE, UL. ADAMA MICKIEWICZA, 20-466, LUBLIN, 22.577994, 51.216809, 99.7, 994.0, 15.4,2.3,2.036363636363636, 2026-07-04 06:54:45,,
SZKOŁA PODSTAWOWA W ORLE, None, 07-320, ORŁO, 21.989508, 52.732095, 58.21666666666667, 998.5916666666667, 16.933333333333334,3.508333333333333,2.408333333333333, 2026-07-04 06:54:45,,
SZKOŁA PODSTAWOWA IM. WINCENTEGO WITOSA W GROMNIKU, UL. WITOSA, 33-180, GROMNIK, 20.959304, 49.840276, 73.21666666666667, 987.4833333333332, 14.441666666666668,2.216666666666667,1.933333333333333, 2026-07-04 06:54:45,,
AKADEMIA NAJMŁODSZYCH KRZYSZTOF GOŁAŚ NIEPUBLICZNA SZKOŁA PODSTAWOWA W KADZIDLE, UL. BRZOZOWA, 07-420, KADZIDŁO, 21.450353, 53.231522, 65.76666666666667, 997.8166666666666, 16.008333333333333,3.941666666666666,2.591666666666667, 2026-07-04 06:54:45,,
SZKOŁA PODSTAWOWA IM. ŚW. STANISŁAWA KOSTKI W AMELINIE, None, 06-212, AMELIN, 20.92818124, 52.98166409, 67.47500000000001, 998.75, 15.799999999999999,4.366666666666666,2.766666666666667, 2026-07-04 06:54:45,,
SZKOŁA PODSTAWOWA SPECJALNA NR 44 IM. JANA BRZECHWY W KRAKOWIE, UL. ZAKĄTEK, 30-076, KRAKÓW, 19.916426, 50.076299, 67.78333333333333, 992.8249999999999, 14.916666666666666,3.583333333333333,2.916666666666666, 2026-07-04 06:54:45,,
SZKOŁA PODSTAWOWA NR 1 IM. ŚW. JADWIGI KRÓLOWEJ W PODWILKU, None, 34-722, PODWILK, 19.7397286, 49.547978, 64.77499999999999, 940.0416666666666, 15.016666666666666,1.258333333333333,1.141666666666666, 2026-07-04 06:54:45,,
LICEUM OGÓLNOKSZTAŁCĄCE KADETÓW RZECZYPOSPOLITEJ POLSKIEJ W LIPINACH, None, 26-425, LIPINY, 20.511418, 51.54591, 69.5, 997.8416666666667, 13.708333333333334,2.233333333333333,1.216666666666666, 2026-07-04 06:54:45,,
SZKOŁA PODSTAWOWA NR 1 W BIAŁYM BORZE, UL. DWORCOWA, 78-425, BIAŁY BÓR, 16.84535152, 53.89895274, 81.69166666666666, 993.0833333333334, 13.858333333333334,3.566666666666666,2.291666666666666, 2026-07-04 06:54:45,,
SZKOŁA PODSTAWOWA IM.NOBLISTÓW POLSKICH W SIEMYŚLU, UL. SZKOLNA, 78-123, SIEMYŚL, 15.53351351, 54.02888072, 71.49166666666666, 1011.6916666666667, 15.616666666666667,2.258333333333333,1.733333333333333, 2026-07-04 06:54:45,,
SZKOŁA PODSTAWOWA W DASZEWIE, None, 78-230, DASZEWO, 15.881284, 54.081214, 73.09166666666665, 1011.275, 15.699999999999998,2.233333333333333,1.691666666666666, 2026-07-04 06:54:45,,
SZKOŁA PODSTAWOWA NR 1 IM. ADAMA MICKIEWICZA W POŁCZYNIE-ZDROJU, UL. GRUNWALDZKA, 78-320, POŁCZYN-ZDRÓJ, 16.095199000000004, 53.767893339499636, 70.53636363636363, 1005.0727272727272, 15.881818181818183,4.8,3.709090909090909, 2026-07-04 06:54:45,,
SZKOŁA PODSTAWOWA W DARGINI, None, 76-020, DARGIŃ, 16.3943428, 54.0157172, 73.53333333333333, 1003.1083333333335, 15.300000000000002,2.116666666666666,1.6416666666666662, 2026-07-04 06:54:45,,
ARCHIDIECEZJALNA SZKOŁA MUZYCZNA II ST. IM. KS. KARD. FRANCISZKA MACHARSKIEGO W KRAKOWIE, UL. PROSTA, 30-814, KRAKÓW-PODGÓRZE, 19.988467, 50.020869, 54.339999999999996, 991.71, 18.14,3.139999999999999,2.56, 2026-07-04 06:54:45,,
SZKOŁA PODSTAWOWA Z ODDZIAŁAMI INTEGRACYJNYMI NR 30 IM. KAZIMIERZA PUŁASKIEGO W KRAKOWIE, UL. KONFEDERACKA, 30-306, KRAKÓW-PODGÓRZE, 19.927626, 50.048977, 66.81666666666666, 993.7166666666667, 15.283333333333333,5.425,4.366666666666666, 2026-07-04 06:54:45,,
SPOŁECZNA SZKOŁA PODSTAWOWA NR 2 SPOŁECZNEGO TOWARZYSTWA OŚWIATOWEGO W TARNOWIE, UL. JANA MATEJKI, 33-100, TARNÓW, 20.98127883, 50.01473267, 60.15833333333333, 993.3499999999999, 16.816666666666666,4.675,3.8249999999999993, 2026-07-04 06:54:45,,
XII LICEUM OGÓLNOKSZTAŁCĄCE W ZESPOLE SZKÓŁ MECHANICZNO-ELEKTRYCZNYCH W TARNOWIE, UL. JÓZEFA SZUJSKIEGO, 33-100, TARNÓW, 20.975575, 50.015268, 61.675000000000004, 993.5, 16.650000000000002,4.541666666666667,3.766666666666667, 2026-07-04 06:54:45,,
TECHNIKUM NR 1 W ZESPOLE SZKÓŁ TECHNICZNYCH IM.IGNACEGO MOŚCICKIEGO W TARNOWIE, UL. EUGENIUSZA KWIATKOWSKIEGO, 33-101, TARNÓW, 20.9172948, 50.01387361, 63.800000000000004, 993.8416666666667, 16.291666666666668,2.925,2.449999999999999, 2026-07-04 06:54:45,,
SZKOŁA PODSTAWOWA W ZESPOLE SZKÓŁ IM.MĘCZENNIKÓW MARSZU ŚMIERCI KL STUTTHOF W GARCZEGORZU, None, 84-351, GARCZEGORZE, 17.72784195, 54.59420501, 81.26666666666667, 1005.2583333333333, 14.966666666666667,5.8,3.5749999999999997, 2026-07-04 06:54:45,,
PUBLICZNA SZKOŁA PODSTAWOWA NR 1 IM.BOHATERÓW WESTERPLATTE W PRUDNIKU, UL. PODGÓRNA, 48-200, PRUDNIK, 17.595989, 50.32052, 81.01666666666667, 988.9416666666666, 15.666666666666666,1.825,1.075, 2026-07-04 06:54:45,,
ZESPÓŁ SZKÓŁ GMINNYCH IM. MIKOŁAJA KOPERNIKA W GAWŁOWIE SZKOŁA PODSTAWOWA Z ODDZIAŁAMI SPORTOWYMI W GAWŁOWIE, None, 32-711, GAWŁÓW, 20.463199, 50.026547, 63.88333333333333, 995.4499999999999, 16.241666666666667,1.8499999999999992,1.616666666666666, 2026-07-04 06:54:45,,
SZKOŁA PODSTAWOWA SPECJALNA W GRÓJCU, UL. POLNA, 05-600, GRÓJEC, 20.863021, 51.862928, 62.49166666666667, 996.0916666666667, 15.924999999999999,3.666666666666666,2.316666666666666, 2026-07-04 06:54:45,,
PUBLICZNA SZKOŁA PODSTAWOWA W SUCHEJ, UL. SZLACHECKA, 26-800, SUCHA, 20.953664, 51.617246, 67.54166666666667, 999.5749999999999, 14.525,2.683333333333333,2.066666666666667, 2026-07-04 06:54:45,,
TECHNIKUM W WARCE, UL. OBWODOWA, 05-660, WARKA, 21.182782, 51.79066, 64.58333333333333, 1000.0666666666666, 15.875,3.733333333333333,2.508333333333333, 2026-07-04 06:54:45,,
SZKOŁA PODSTAWOWA NR 4 W RYDUŁTOWACH, UL. STRZELCÓW BYTOMSKICH, 44-280, RYDUŁTOWY, 18.417777, 50.06633209, 71.3111111111111, 985.9111111111112, 15.566666666666666,1.4333333333333331,1.211111111111111, 2026-07-04 06:54:45,,
PUBLICZNA SZKOŁA PODSTAWOWA NR 1 IM. BOLESŁAWA KRZYWOUSTEGO W KOŻUCHOWIE, UL. CHOPINA, 67-120, KOŻUCHÓW, 15.5962077, 51.7425702, 66.06666666666666, 1006.7666666666668, 15.216666666666667,2.6166666666666663,2.116666666666666, 2026-07-04 06:54:45,,
PUBLICZNA SZKOŁA PODSTAWOWA NR 1 IM. KOMISJI EDUKACJI NARODOWEJ W BIAŁOBRZEGACH, UL. RZEMIEŚLNICZA, 26-800, BIAŁOBRZEGI, 20.9533613, 51.64505952, 71.64166666666667, 1004.0083333333333, 13.816666666666668,2.391666666666666,2.0, 2026-07-04 06:54:45,,
TECHNIKUM IM. ZESŁAŃCÓW SYBIRU W BRODNICY, UL. KARBOWSKA, 87-300, BRODNICA, 19.4065091, 53.2579165, 65.45, 1004.7999999999998, 16.866666666666664,5.375,3.183333333333333, 2026-07-04 06:54:45,,
PUBLICZNA SZKOŁA PODSTAWOWA W GOSZCZYNIE, UL. ARMII KRAJOWEJ, 05-610, GOSZCZYN, 20.85589777, 51.73236675, 69.52499999999999, 996.0749999999999, 14.283333333333333,3.541666666666666,2.199999999999999, 2026-07-04 06:54:45,,
LICEUM OGÓLNOKSZTAŁCĄCE W TARCZYNIE, UL. KS. CZESŁAWA OSZKIELA, 05-555, TARCZYN, 20.83477, 51.98106, 64.61666666666666, 997.9, 16.375,3.066666666666666,2.183333333333333, 2026-07-04 06:54:45,,
SZKOŁA PODSTAWOWA IM. BŁOGOSŁAWIONEGO KS. JERZEGO POPIEŁUSZKI W NIECZAJNIE GÓRNEJ, None, 33-205, NIECZAJNA GÓRNA, 21.052364, 50.180347, 63.51666666666667, 994.0083333333333, 16.0,3.2416666666666663,2.5, 2026-07-04 06:54:45,,
SZKOŁA PODSTAWOWA NR 86 IM. POWSTAŃCÓW ŚLĄSKICH W KRAKOWIE, OS. OSIEDLE JAGIELLOŃSKIE, 31-833, KRAKÓW-NOWA HUTA, 20.027067, 50.084753, 70.1, 995.4799999999999, 14.86,3.09,2.83, 2026-07-04 06:54:45,,
SZKOŁA PODSTAWOWA IM. BATALIONU BARBARA AK W PAWĘZOWIE, None, 33-103, PAWĘZÓW, 20.98588298, 50.07066136, 61.38333333333333, 988.7999999999998, 16.325,3.275,2.775, 2026-07-04 06:54:45,,
SZKOŁA PODSTAWOWA IM. POWSTAŃCÓW STYCZNIOWYCH W DALIKOWIE, UL. ŁĘCZYCKA, 99-205, DALIKÓW, 19.10104737, 51.8835744, 69.89166666666667, 998.5583333333334, 14.025,3.416666666666666,2.266666666666666, 2026-07-04 06:54:45,,
BRANŻOWA SZKOŁA I STOPNIA SPECJALNA W SKAWINIE W SPECJALNYM OŚRODKU SZKOLNO-WYCHOWAWCZYM IM. POCZTY POLSKIEJ W SKAWINIE, UL. ŻWIRKI I WIGURY, 32-050, SKAWINA, 19.825058, 49.973327, 64.99090909090908, 993.3818181818181, 16.645454545454545,3.581818181818181,2.972727272727273, 2026-07-04 06:54:45,,
PUBLICZNA SZKOŁA PODSTAWOWA W JAWORZU GÓRNYM, None, 39-223, JAWORZE GÓRNE, 21.354123, 49.94549, 71.71666666666667, 989.2416666666667, 15.116666666666667,3.15,2.558333333333333, 2026-07-04 06:54:45,,
SZKOŁA PODSTAWOWA NR 234 IM. JULIANA TUWIMA W WARSZAWIE, UL. ESPERANTO, 01-049, WARSZAWA, 20.980951, 52.244004, 54.916666666666664, 1000.1416666666668, 17.616666666666667,2.758333333333333,1.941666666666666, 2026-07-04 06:54:45,,
XI LICEUM OGÓLNOKSZTAŁCĄCE IM. MIKOŁAJA REJA W WARSZAWIE, PL. PLAC STANISŁAWA MAŁACHOWSKIEGO, 00-063, WARSZAWA, 21.01075177068874, 52.238891020514885 , 53.48333333333333, 1000.125, 17.758333333333333,2.833333333333333,2.0, 2026-07-04 06:54:45,,
SZKOŁA PODSTAWOWA IM. ŚW. JADWIGI KRÓLOWEJ POLSKI W LISIEJ GÓRZE, UL. SZKOLNA, 33-140, LISIA GÓRA, 21.04434023989556, 50.081408096695185 , 65.23333333333333, 987.4833333333332, 15.591666666666667,2.933333333333333,2.533333333333333, 2026-07-04 06:54:45,,
SZKOŁA PODSTAWOWA NR 89 IM. TADEUSZA MAZOWIECKIEGO W GDAŃSKU, UL. SZYPRÓW, 80-335, GDAŃSK, 18.5764229, 54.422398, 82.225, 1011.8333333333334, 14.950000000000001,3.675,1.458333333333333, 2026-07-04 06:54:45,,
SZKOŁA PODSTAWOWA NR 82 IM. PROF. JANA CZOCHRALSKIEGO W GDAŃSKU, UL. RADAROWA, 80-298, GDAŃSK, 18.4834117, 54.3881906, 86.54166666666667, 993.8833333333333, 14.166666666666666,6.558333333333334,4.008333333333334, 2026-07-04 06:54:45,,
SZKOŁA TECHNICZNA BYDGOSKIEGO ZAKŁADU DOSKONALENIA ZAWODOWEGO W CHOJNICACH, UL. KOŚCIERSKA, 89-600, CHOJNICE, 17.57105185, 53.69729052, 75.88333333333334, 993.4499999999999, 14.649999999999999,4.3,2.633333333333333, 2026-07-04 06:54:45,,
PRYWATNA SZKOŁA PODSTAWOWA NAJA SZKOŁA W WEJHEROWIE, UL. PRZEMYSŁOWA, 84-200, WEJHEROWO, 18.21802095, 54.61295281, 84.475, 1008.2666666666668, 14.924999999999999,5.916666666666667,3.85, 2026-07-04 06:54:45,,
ZESPÓŁ PLACÓWEK OŚWIATOWYCH SZKOŁA PODSTAWOWA IM. JÓZEFA BEMA W WOLI FILIPOWSKIEJ, UL. SZKOLNA, 32-065, WOLA FILIPOWSKA, 19.5849512, 50.1324622, 76.5, 985.9833333333332, 12.916666666666666,0.0,0.0, 2026-07-04 06:54:45,,
SZKOŁA PODSTAWOWA W NOWYCH ŁUBKACH, None, 09-454, NOWE ŁUBKI, 20.0336032, 52.5782308, 64.33636363636364, 1005.5454545454545, 16.336363636363636,6.145454545454545,4.172727272727273, 2026-07-04 06:54:45,,
SZKOŁA PODSTAWOWA NR 36 IM. JULIANA TUWIMA W ZABRZU, PL. PLAC WARSZAWSKI, 41-800, ZABRZE, 18.78893235, 50.30422484, 66.25, 987.9916666666667, 16.1,2.508333333333333,1.991666666666666, 2026-07-04 06:54:45,,
III LICEUM OGÓLNOKSZTAŁCĄCE Z ODDZIAŁAMI DWUJĘZYCZNYMI W ZABRZU, UL. HENRYKA SIENKIEWICZA, 41-800, ZABRZE, 18.7957049, 50.29655227, 66.925, 985.775, 15.825000000000001,2.9375,2.3125, 2026-07-04 06:54:45,,
SZKOŁA PODSTAWOWA NR 48 W ZABRZU W CENTRUM KSZTAŁCENIA OGÓLNEGO I ZAWODOWEGO W ZABRZU, UL. ZWROTNICZA, 41-807, ZABRZE, 18.76624, 50.343641, 71.07000000000001, 988.6300000000001, 15.45,3.21,2.56, 2026-07-04 06:54:45,,
BRANŻOWA SZKOŁA I STOPNIA NR 6 W ZABRZU W ZABRZAŃSKIM CENTRUM KSZTAŁCENIA OGÓLNEGO I ZAWODOWEGO W ZABRZU, UL. MARSZAŁKA JÓZEFA PIŁSUDSKIEGO, 41-800, ZABRZE, 18.76296398, 50.29894695, 67.39999999999999, 989.7916666666666, 16.233333333333334,3.691666666666666,2.875, 2026-07-04 06:54:45,,
SZKOŁA PODSTAWOWA NR 29 W ZABRZU, UL. BUDOWLANA, 41-808, ZABRZE, 18.791604, 50.364381, 73.95714285714287, 985.7857142857143, 14.7,2.685714285714286,2.157142857142857, 2026-07-04 06:54:45,,
IV LICEUM OGÓLNOKSZTAŁCĄCE IM. MIKOŁAJA REJA W ZABRZU, UL. GEN. WŁADYSŁAWA ANDERSA, 41-808, ZABRZE, 18.795194, 50.369265, 78.72222222222223, 986.0111111111112, 14.822222222222223,2.855555555555555,2.288888888888889, 2026-07-04 06:54:45,,
SZKOŁA PODSTAWOWA NR 7 IM. ADAMA MICKIEWICZA W GLIWICACH, UL. TARNOGÓRSKA, 44-100, GLIWICE, 18.684621, 50.306626, 68.09166666666667, 989.0749999999999, 15.525,3.416666666666666,2.725, 2026-07-04 06:54:45,,
MIEJSKA SZKOŁA PODSTAWOWA Z ODDZIAŁAMI INTEGRACYJNYMI NR 2 IM. KAROLA MIARKI W KNUROWIE, UL. WILSONA, 44-190, KNURÓW, 18.664685, 50.223275, 73.8, 990.125, 14.8,2.5125,2.075, 2026-07-04 06:54:45,,
SZKOŁA PODSTAWOWA IM. MARGARETHY KAMPRAD W JAROSTACH, UL. LEŚNA, 97-310, JAROSTY, 19.68775849, 51.45636536, 70.08333333333333, 992.8833333333333, 13.591666666666667,2.8,2.4666666666666672, 2026-07-04 06:54:45,,
SZKOŁA PODSTAWOWA IM. DR HENRYKA JORDANA W KSAWEROWIE, UL. ZACHODNIA, 95-054, KSAWERÓW, 19.39486431, 51.68227822, 70.1875, 993.3625, 13.75,4.3375,2.7125, 2026-07-04 06:54:45,,
BRANŻOWA SZKOŁA I STOPNIA NR 1 W OPOCZNIE, UL. WOJCIECHA KOSSAKA, 26-300, OPOCZNO, 20.27237638, 51.37764127, 65.73333333333333, 993.5111111111112, 14.58888888888889,3.055555555555555,2.066666666666667, 2026-07-04 06:54:45,,
SZKOŁA PODSTAWOWA NR 157 IM. IGNACEGO JANA PADEREWSKIEGO W KRAKOWIE, UL. LUDWIKA RYDYGIERA, 30-695, KRAKÓW-PODGÓRZE, 20.00607, 50.006338, 59.26666666666667, 990.0083333333333, 17.458333333333332,2.766666666666667,2.258333333333333, 2026-07-04 06:54:45,,
I LICEUM OGÓLNOKSZTAŁCĄCE IM. JĘDRZEJA ŚNIADECKIEGO W PABIANICACH, UL. STANISŁAWA MONIUSZKI, 95-200, PABIANICE, 19.32977177, 51.65677453, 68.35000000000001, 992.8166666666666, 13.791666666666666,3.483333333333333,2.291666666666666, 2026-07-04 06:54:45,,
SZKOŁA PODSTAWOWA IM.MARII KONOPNICKIEJ W ROZTOCE, None, 34-606, ROZTOKA, 20.4571424, 49.6263815, 64.50833333333334, 955.7416666666667, 15.216666666666667,3.108333333333333,2.5666666666666678, 2026-07-04 06:54:45,,
PUBLICZNA SZKOŁA PODSTAWOWA W STOBIECKU SZLACHECKIM, None, 97-561, STOBIECKO SZLACHECKIE, 19.38629184, 51.10621326, 62.14166666666667, 989.875, 15.791666666666666,1.966666666666666,1.6416666666666662, 2026-07-04 06:54:45,,
SZKOŁA PODSTAWOWA IM. JANA PAWŁA II W USTKOWIE, None, 98-290, USTKÓW, 18.600692, 51.766123, 73.25, 1000.8083333333334, 13.783333333333333,2.908333333333333,2.125, 2026-07-04 06:54:45,,
SZKOŁA PODSTAWOWA NR 60 IM. STANISŁAWA WYSPIAŃSKIEGO W KRAKOWIE, UL. KAZIMIERZA ODNOWICIELA, 31-481, KRAKÓW-ŚRÓDMIEŚCIE, 19.970521, 50.088055, 69.41, 991.89, 14.930000000000001,2.489999999999999,2.09, 2026-07-04 06:54:45,,
SZKOŁA PODSTAWOWA IM. MARSZAŁKA JÓZEFA PIŁSUDSKIEGO W WARTKOWICACH, UL. LEGIONÓW POLSKICH, 99-220, WARTKOWICE, 19.00434298, 51.97577194, 67.50833333333334, 1002.475, 14.766666666666666,3.6,2.541666666666666, 2026-07-04 06:54:45,,
SZKOŁA PODSTAWOWA NR 2 IM. KONSTYTUCJI 3-GO MAJA W MĘCINIE, None, 34-654, MĘCINA, 20.5404381, 49.7016283, 61.61666666666667, 961.7416666666667, 15.366666666666667,2.15,1.7000000000000002, 2026-07-04 06:54:45,,
BRANŻOWA SZKOŁA I STOPNIA NR 2 W GORLICACH, UL. JÓZEFA MICHALUSA, 38-300, GORLICE, 21.173963, 49.66959, 67.57777777777778, 984.2000000000002, 15.222222222222221,1.777777777777777,1.522222222222222, 2026-07-04 06:54:45,,
SZKOŁA PODSTAWOWA NR 2 IM HENRYKA SIENKIEWICZA W PRZYSZOWEJ, None, 34-604, PRZYSZOWA, 20.4806341, 49.6603381, 70.7, 963.3000000000001, 14.858333333333334,1.75,1.416666666666666, 2026-07-04 06:54:45,,
SZKOŁA PODSTAWOWA IM. KRÓLOWEJ JADWIGI W WYSOKIEM, None, 34-600, WYSOKIE, 20.5394861, 49.6552386, 61.166666666666664, 952.4083333333333, 15.266666666666666,2.4,1.833333333333333, 2026-07-04 06:54:45,,
SZKOŁA PODSTAWOWA NR 1 Z ODDZIAŁAMI INTEGRACYJNYMI W RACIBORZU, UL. CECYLII, 47-400, RACIBÓRZ, 18.2321525, 50.0999982, 65.36666666666666, 997.3249999999999, 16.0,2.416666666666666,1.925, 2026-07-04 06:54:45,,
SZKOŁA PODSTAWOWA NR 3 IM. MARII DĄBROWSKIEJ W RESZLU, UL. MARII KONOPNICKIEJ, 11-440, RESZEL, 21.1486175, 54.052554, 82.79166666666667, 996.0916666666667, 14.641666666666666,3.025,2.425, 2026-07-04 06:54:45,,
SZKOŁA PODSTAWOWA NR 1 IM. MIKOŁAJA KOPERNIKA W WĘGORZEWIE, UL. PIONIERÓW, 11-600, WĘGORZEWO, 21.7379192, 54.2136049, 87.55, 994.3666666666667, 14.174999999999999,3.275,2.291666666666666, 2026-07-04 06:54:45,,
ZESPÓŁ SZKÓŁ GMINNYCH IM. HENRYKA SIENKIEWICZA W STANISŁAWICACH SZKOŁA PODSTAWOWA W STANISŁAWICACH, None, 32-015, STANISŁAWICE, 20.350192, 49.982029, 56.48333333333333, 993.875, 18.325,3.158333333333333,2.733333333333333, 2026-07-04 06:54:45,,
TECHNIKUM NR 3 W ZESPOLE SZKÓŁ NR 3 IM. KS. PROF. JÓZEFA TISCHNERA W BOCHNI, UL. KRAKOWSKA, 32-700, BOCHNIA, 20.421654, 49.965508, 58.475, 991.3499999999999, 17.525000000000002,2.091666666666667,1.7000000000000002, 2026-07-04 06:54:45,,
SZKOŁA PODSTAWOWA NR 94 W ŁODZI, UL. ZACISZE, 90-228, ŁÓDŹ-ŚRÓDMIEŚCIE, 19.47642378, 51.77789288, 64.60000000000001, 990.1083333333335, 14.358333333333334,3.8,2.508333333333333, 2026-07-04 06:54:45,,
SZKOŁA PODSTAWOWA NR 1 IM. STEFANA ŻEROMSKIEGO W ŻUROMINIE, UL. WYZWOLENIA, 09-300, ŻUROMIN, 19.911175, 53.071036, 70.78, 997.76, 15.98,4.12,2.88, 2026-07-04 06:54:45,,
TECHNIKUM IM. WINCENTEGO WITOSA W STUDZIEŃCU, None, 09-200, STUDZIENIEC, 19.640243, 52.877888, 69.125, 1001.8249999999999, 16.0,4.908333333333333,3.058333333333333, 2026-07-04 06:54:45,,
SZKOŁA PODSTAWOWA W SYPITKACH, None, 19-314, SYPITKI, 22.5643375, 53.7876812, 74.13333333333334, 994.4583333333334, 16.1,2.4916666666666663,1.95, 2026-07-04 06:54:45,,
SZKOŁA PODSTAWOWA IM. TADEUSZA KOŚCIUSZKI W ZBROSŁAWICACH, UL. WOLNOŚCI, 42-674, ZBROSŁAWICE, 18.74511, 50.415455, 75.28333333333333, 988.5333333333333, 14.566666666666668,2.216666666666667,1.841666666666666, 2026-07-04 06:54:45,,
SZKOŁA PODSTAWOWA NR 4 Z ODDZIAŁAMI SPORTOWYMI I MISTRZOSTWA SPORTOWEGO W ŻORACH, UL. BORYŃSKA, 44-240, ŻORY, 18.687221, 50.039349, 61.5, 985.4833333333332, 16.341666666666665,2.183333333333333,1.858333333333333, 2026-07-04 06:54:45,,
SZKOŁA PODSTAWOWA NR 10 IM. MARII SKŁODOWSKIEJ-CURIE W ZDUŃSKIEJ WOLI, UL. ZIELONA, 98-220, ZDUŃSKA WOLA, 18.95037552, 51.60020179, 66.175, 995.3333333333334, 14.391666666666667,3.083333333333333,2.074999999999999, 2026-07-04 06:54:45,,
SZKOŁA PODSTAWOWA NR 4 IM.FRANCISZKA STUSKA W ORZESZU JAŚKOWICACH, UL. STUSKA, 43-180, ORZESZE, 18.746978, 50.145788, 74.91111111111111, 986.0777777777779, 14.788888888888888,1.822222222222222,1.7666666666666662, 2026-07-04 06:54:45,,
SZKOŁA PODSTAWOWA NR 2 IM. JANA WYPLERA W RUDZIE ŚLĄSKIEJ, UL. GWARECKA, 41-705, RUDA ŚLĄSKA, 18.89349369757705, 50.267719400613906 , 74.78333333333333, 990.2333333333332, 14.116666666666667,2.716666666666667,2.266666666666666, 2026-07-04 06:54:45,,
IV LICEUM OGÓLNOKSZTAŁCĄCE IM. ORLĄT LWOWSKICH W GLIWICACH, UL. KOZIELSKA, 44-100, GLIWICE, 18.654651, 50.298038, 65.3, 992.1600000000001, 16.46,3.4,2.67, 2026-07-04 06:54:45,,
SZKOŁA PODSTAWOWA NR 3 I. BOHATERÓW POWSTANIA WARSZAWSKIEGO Z ODDZIAŁAMI INTEGRACYJNYMI W PIASTOWIE, UL. ALEJA TYSIĄCLECIA, 05-820, PIASTÓW, 20.841563186509138, 52.178313490439706, 63.800000000000004, 1003.7000000000002, 17.066666666666666,4.733333333333333,3.199999999999999, 2026-07-04 06:54:45,,
TECHNIKUM W BIECZU, UL. KAZIMIERZA WIELKIEGO, 38-340, BIECZ, 21.255765242327236, 49.73291457112003, 69.7, 985.7083333333334, 14.466666666666667,2.141666666666666,1.9, 2026-07-04 06:54:45,,
SZKOŁA PODSTAWOWA NR 16 IM. JANUSZA KORCZAKA W RUDZIE ŚLĄSKIEJ, UL. KUKUŁCZA, 41-710, RUDA ŚLĄSKA, 18.88033, 50.268433, 74.5, 988.2, 14.8,3.3,2.6, 2026-07-04 06:54:45,,
SZKOŁA PODSTAWOWA IM.STEFANA CZARNIECKIEGO W RACŁAWICACH, None, 38-323, RACŁAWICE, 21.127689745801828, 50.06979323518478, 62.18333333333334, 982.5666666666666, 16.341666666666665,2.3,2.025, 2026-07-04 06:54:45,,
SZKOŁA PODSTAWOWA IM. WŁADYSŁAWA BRONIEWSKIEGO W SZCZEJKOWICACH, UL. WIEJSKA, 44-246, SZCZEJKOWICE, 18.679024, 50.095496, 74.25, 986.6, 15.233333333333334,1.808333333333333,1.65, 2026-07-04 06:54:45,,
SZKOŁA PODSTAWOWA IM. FRANCISZKA RDUCHA W BEŁKU, UL. SZYMOCHY, 44-237, BEŁK, 18.712687, 50.134061, 72.125, 988.3333333333334, 14.850000000000001,1.8916666666666664,1.541666666666666, 2026-07-04 06:54:45,,
SZKOŁA PODSTAWOWA W PONIATOWIE, UL. SZKOLNA, 09-300, PONIATOWO, 19.864252, 53.041259, 66.35000000000001, 998.4083333333333, 15.983333333333334,3.85,2.041666666666666, 2026-07-04 06:54:45,,
SZKOŁA PODSTAWOWA IM. ZIEMI WARMIŃSKIEJ W PIENIĘŻNIE, UL. ORNECKA, 14-520, PIENIĘŻNO, 20.1287545, 54.2359313, 86.44166666666666, 1000.7833333333333, 14.541666666666666,5.85,3.75, 2026-07-04 06:54:45,,
SZKOŁA PODSTAWOWA NR 5 IM. POLSKICH OLIMPIJCZYKÓW W ŚWIECIU, UL. WOJSKA POLSKIEGO, 86-105, ŚWIECIE, 18.404523109363243, 53.4022885304552, 66.03999999999999, 1010.36, 16.65,5.83,3.38, 2026-07-04 06:54:45,,
TECHNIKUM NR 2 W KĘTRZYNIE, UL. POZNAŃSKA, 11-400, KĘTRZYN, 21.3575617, 54.0772049, 83.53333333333333, 1001.9499999999999, 14.6,0.708333333333333,0.291666666666666, 2026-07-04 06:54:45,,
I LICEUM OGÓLNOKSZTAŁCĄCE IM. WOJCIECHA KĘTRZYŃSKIEGO W KĘTRZYNIE, UL. POWSTAŃCÓW WARSZAWY, 11-400, KĘTRZYN, 21.3725281, 54.0774004, 78.36666666666666, 996.9250000000001, 15.350000000000001,3.475,2.275, 2026-07-04 06:54:45,,
SZKOŁA PODSTAWOWA NR 3 IM. HENRYKA SIENKIEWICZA W EŁKU, UL. GRODZIEŃSKA, 19-300, EŁK, 22.3468805, 53.832444, 74.63333333333334, 992.5833333333334, 15.866666666666667,2.7416666666666663,1.983333333333333, 2026-07-04 06:54:45,,
SZKOŁA PODSTAWOWA NR 13 Z ODDZIAŁAMI SPORTOWYMI I MISTRZOSTWA SPORTOWEGO IM. POLSKICH OLIMPIJCZYKÓW W ŻORACH, OS. OSIEDLE PAWLIKOWSKIEGO, 44-240, ŻORY, 18.68289226, 50.03250482, 68.33000000000001, 985.74, 15.73,2.07,1.64, 2026-07-04 06:54:45,,
PRYWATNA SZKOŁA PODSTAWOWA W KRAKOWIE, UL. PODGÓRKI TYNIECKIE, 30-398, KRAKÓW-PODGÓRZE, 19.84421916, 50.01213341, 65.7090909090909, 992.3, 16.036363636363635,2.527272727272727,2.199999999999999, 2026-07-04 06:54:45,,
PUBLICZNA SZKOŁA PODSTAWOWA IM KARDYNAŁA STEFANA WYSZYŃSKIEGO W GŁOSKOWIE, None, 08-412, GŁOSKÓW, 21.693825, 51.932915, 65.78333333333333, 995.8499999999999, 15.924999999999999,4.191666666666666,3.008333333333333, 2026-07-04 06:54:45,,
SZKOŁA PODSTAWOWA NR 5 IM I. J. PADEREWSKIEGO W PRUSZKOWIE, UL. JANA DŁUGOSZA, 05-804, PRUSZKÓW, 20.815629142327243, 52.18859558069476, 61.19166666666666, 1002.5583333333334, 16.775000000000002,4.649999999999999,3.083333333333333, 2026-07-04 06:54:45,,
SZKOŁA PODSTAWOWA IM. HENRYKA SIENKIEWICZA W STARYM KĘBŁOWIE, None, 08-430, STARY KĘBŁÓW, 21.862929, 51.791451, 64.76666666666667, 993.7583333333333, 15.916666666666666,3.3666666666666663,2.583333333333333, 2026-07-04 06:54:45,,
TECHNIKUM W ŻELECHOWIE, UL. MARSZAŁKA JÓZEFA PIŁSUDSKIEGO, 08-430, ŻELECHÓW, 21.898786, 51.812356, 65.71666666666667, 993.5916666666667, 15.858333333333334,4.024999999999999,2.975, 2026-07-04 06:54:45,,
SZKOŁA PODSTAWOWA W ZESPOLE SZKÓŁ OGÓLNOKSZTAŁCĄCYCH W MAZOWIECKIM CENTRUM NEUROPSYCHIATRII W JÓZEFOWIE , UL. 3 MAJA, 05-420, JÓZEFÓW, 21.234656, 52.128054, 56.333333333333336, 1002.5500000000001, 17.775000000000002,3.633333333333333,2.408333333333333, 2026-07-04 06:54:45,,
II LICEUM OGÓLNOKSZTAŁCĄCE IM. GEN. GUSTAWA ORLICZ-DRESZERA W CHEŁMIE, UL. SZPITALNA, 22-100, CHEŁM, 23.45593021, 51.14267385, 64.47500000000001, 991.3583333333332, 16.066666666666666,2.391666666666666,1.8499999999999992, 2026-07-04 06:54:45,,
SZKOŁA PODSTAWOWA IM.J.CHEŁMOŃSKIEGO W KUKLÓWCE RADZIEJOWICKIEJ, UL. SZKOLNA, 96-325, KUKLÓWKA RADZIEJOWICKA, 20.59054414, 52.04408065, 63.82000000000001, 1001.71, 16.5,3.729999999999999,2.5, 2026-07-04 06:54:45,,
SZKOŁA PODSTAWOWA NR 3 IM. ORŁA BIAŁEGO W CIECHANOWIE, UL. POWSTAŃCÓW WIELKOPOLSKICH, 06-400, CIECHANÓW, 20.631842155818422, 52.882394549980845, 63.625, 997.6, 16.441666666666666,4.033333333333333,2.541666666666666, 2026-07-04 06:54:45,,
SALEZJAŃSKA SZKOŁA PODSTAWOWA Z ODDZIAŁAMI INTEGRACYJNYMI W SALEZJAŃSKIM OŚRODKU SZKOLNO-WYCHOWAWCZYM W TARNOWSKICH GÓRACH, UL. JANA ŚNIADECKIEGO, 42-604, TARNOWSKIE GÓRY, 18.80622755, 50.43256357, 75.075, 941.4666666666667, 14.424999999999999,2.083333333333333,1.6416666666666662, 2026-07-04 06:54:45,,
SZKOŁA PODSTAWOWA NR 1 IM PIERWSZEGO MARSZAŁKA POLSKI JÓZEFA PIŁSUDSKIEGO W SULEJÓWKU, UL. IDZIKOWSKIEGO, 05-070, SULEJÓWEK, 21.26694575396344, 52.24433487687851, 51.05833333333334, 1000.8333333333334, 18.40833333333333,4.266666666666667,2.641666666666667, 2026-07-04 06:54:45,,
NIEPUBLICZNA INTEGRACYJNA SZKOŁA PODSTAWOWA W MYSIADLE, UL. KRÓTKA, 05-515, MYSIADŁO, 21.005366, 52.099954, 65.05454545454546, 1002.9090909090909, 16.845454545454547,5.072727272727272,3.3, 2026-07-04 06:54:45,,
PUBLICZNA SZKOŁA PODSTAWOWA IM. JANUSZA KORCZAKA W GOŹDZIE, UL. STAROWIEJSKA, 26-634, GÓZD, 21.378914500000004, 51.376315985021016, 64.08333333333333, 993.5, 15.033333333333333,3.416666666666666,2.508333333333333, 2026-07-04 06:54:45,,
SZKOŁA PODSTAWOWA NR 4 IM. JANA PAWŁA II Z ODDZIAŁAMI PRZEDSZKOLNYMI I ODDZIAŁAMI SPORTOWYMI W PRUSZKOWIE , UL. HUBALA, 05-800, PRUSZKÓW, 20.81122021534552, 52.16432045510862, 62.55833333333334, 1004.4416666666666,16.75,3.408333333333333, 1.775, 2026-07-04 06:54:45,
SZKOŁA PODSTAWOWA W OTWOCKU WIELKIM, UL. ZAMKOWA, 05-480, OTWOCK WIELKI, 21.249772, 52.054498, 66.54166666666667, 1002.8499999999999, 16.45,4.741666666666666,3.741666666666666, 2026-07-04 06:54:45,,
NIEPUBLICZNA SZKOŁA PODSTAWOWA WIELICZKA MONTESSORI SCHOOL W WIELICKIEJ SZKOLE MONTESSORI, UL. JANA MIKOŁAJA DANIŁOWICZA, 32-020, WIELICZKA, 20.05646002, 49.98203058, 62.0, 987.5666666666666, 16.650000000000002,2.391666666666666,2.283333333333333, 2026-07-04 06:54:45,,
PUBLICZNA SZKOŁA PODSTAWOWA W OBRAZOWIE, None, 27-641, OBRAZÓW, 21.657963199999998, 50.69068702480904, 72.25, 991.025, 13.108333333333334,3.108333333333333,2.408333333333333, 2026-07-04 06:54:45,,
SZKOŁA PODSTAWOWA W BRZOZOWIE, UL. MIODOWA, 86-200, BRZOZOWO, 18.4238755, 53.314175, 71.39166666666667, 1002.9250000000001, 15.791666666666666,4.758333333333334,2.941666666666666, 2026-07-04 06:54:45,,
SZKOŁA PODSTAWOWA NR 199 IM. JULIANA TUWIMA W ŁODZI, UL. JÓZEFA ELSNERA, 92-504, ŁÓDŹ-WIDZEW, 19.531114643683964, 51.75675184434886 , 69.40833333333333, 990.3499999999999, 13.658333333333333,3.0,1.458333333333333, 2026-07-04 06:54:45,,
SZKOŁA PODSTAWOWA IM. KS. KARD. STEFANA WYSZYŃSKIEGO W BORZYMINIE, None, 87-500, BORZYMIN, 19.3345342, 53.0561291, 50.050000000000004, 998.1166666666667, 19.64166666666667,5.625,3.475, 2026-07-04 06:54:45,,
SZKOŁA PODSTAWOWA IM. TADEUSZA KOŚCIUSZKI W ŁĘTOWICACH, None, 33-121, ŁĘTOWICE, 20.845262, 49.994632, 61.9, 993.8166666666666, 16.541666666666668,2.258333333333333,2.141666666666666, 2026-07-04 06:54:45,,
SZKOŁA PODSTAWOWA IM. PIOTRA ŚCIEGIENNEGO W BĘCZKOWIE, UL. JANA PAWŁA II, 26-008, BĘCZKÓW, 20.80287618, 50.87879103, 71.77499999999999, 981.9666666666667, 13.291666666666666,3.291666666666666,2.8, 2026-07-04 06:54:45,,
SZKOŁA PODSTAWOWA IM.KSIĘCIA KARDYNAŁA ADAMA STEFANA SAPIEHY W BYSINIE, None, 32-400, BYSINA, 19.8876673, 49.8279242, 64.25, 974.8, 16.1,1.85,1.55, 2026-07-04 06:54:45,,
SZKOŁA PODSTAWOWA IM. JANA KOCHANOWSKIEGO W BĘCZARCE, None, 32-444, BĘCZARKA, 19.8615647, 49.8750803, 63.75, 979.475, 16.216666666666665,1.916666666666666,1.625, 2026-07-04 06:54:45,,
TECHNIKUM W NAKLE ŚLĄSKIM, UL. GUSTAWA MORCINKA, 42-620, NAKŁO ŚLĄSKIE, 18.899961, 50.436198, 79.35000000000001, 984.7333333333332, 14.141666666666666,2.058333333333333,1.3916666666666662, 2026-07-04 06:54:45,,
SZKOŁA PODSTAWOWA NR 8 IM. KRZYSZTOFA KAMILA BACZYŃSKIEGO W TARNOWIE, UL. BITWY POD STUDZIANKAMI, 33-100, TARNÓW, 21.00415196, 50.01968672, 61.23333333333333, 990.2999999999998, 16.6,8.458333333333334,7.058333333333334, 2026-07-04 06:54:45,,
SZKOŁA PODSTAWOWA IM. POWSTAŃCÓW STYCZNIOWYCH W DWIKOZACH, UL. SPÓŁDZIELCZA, 27-620, DWIKOZY, 21.78213112698172, 50.737630724889875, 67.89166666666667, 997.5916666666667, 15.200000000000001,2.291666666666666,1.841666666666666, 2026-07-04 06:54:45,,
SZKOŁA PODSTAWOWA IM JANA KOCHANOWSKIEGO W RACIECHOWICACH, None, 32-415, RACIECHOWICE, 20.1425376, 49.8447436, 70.55833333333334, 982.1083333333335, 16.1,1.266666666666666,0.8416666666666661, 2026-07-04 06:54:45,,
SZKOŁA PODSTAWOWA IM. 100-LECIA RUCHU LUDOWEGO W WIERZCHOSŁAWICACH, None, 33-122, WIERZCHOSŁAWICE, 20.8578193, 50.02129351, 64.56, 994.1, 16.12,3.22,2.68, 2026-07-04 06:54:45,,
SZKOŁA PODSTAWOWA NR 2 IM. 12 PUŁKU PIECHOTY W SPYTKOWICACH, None, 34-745, SPYTKOWICE, 19.8620555, 49.5891356, 59.660000000000004, 959.4, 16.5,1.53,1.18, 2026-07-04 06:54:45,,
NIEPUBLICZNA SZKOŁA PODSTAWOWA MONTESSORI W WIELICZCE, UL. JASNA, 32-020, WIELICZKA, 20.04131557116481, 49.98142573025661, 69.39999999999999, 989.3333333333334, 16.883333333333333,2.1,1.5583333333333331, 2026-07-04 06:54:45,,
TECHNIKUM IM. KAROLA WOJTYŁY W SUŁKOWICACH, UL. SZKOLNA, 32-440, SUŁKOWICE, 19.79959, 49.83879, 63.208333333333336, 985.8833333333333, 16.5,1.9083333333333328,1.633333333333333, 2026-07-04 06:54:45,,
SZKOŁA PODSTAWOWA NR 1 IM. ADAMA MICKIEWICZA W KRZESZOWICACH, UL. DŁUGA, 32-065, KRZESZOWICE, 19.63231, 50.14192, 73.55, 985.9666666666667, 13.458333333333334,3.775,3.75, 2026-07-04 06:54:45,,
SZKOŁA PODSTAWOWA IM. KSIĘCIA JÓZEFA PONIATOWSKIEGO W MNIKOWIE, None, 32-084, MNIKÓW, 19.7203981, 50.0603945, 70.84166666666667, 990.5, 15.041666666666666,3.391666666666666,2.883333333333333, 2026-07-04 06:54:45,,
RZEMIEŚLNICZA BRANŻOWA SZKOŁA I STOPNIA W TARNOWIE, PL. DWORCOWY, 33-100, TARNÓW, 20.97230288, 50.00592873, 59.90833333333333, 993.0833333333334, 16.875,3.116666666666666,2.558333333333333, 2026-07-04 06:54:45,,
PUBLICZNA SZKOŁA PODSTAWOWA NR4 IM. EUGENIUSZA KWIATKOWSKIEGO W STALOWEJ WOLI, UL. NIEZŁOMNYCH, 37-450, STALOWA WOLA, 22.049257, 50.566117, 66.64999999999999, 996.2583333333333, 14.791666666666666,2.658333333333333,2.116666666666666, 2026-07-04 06:54:45,,
PUBLICZNA SZKOŁA PODSTAWOWA NR 30 IM. KRÓLOWEJ JADWIGI W RADOMIU, UL. PIASTOWSKA, 26-600, RADOM, 21.15801836, 51.43197508, 56.574999999999996, 997.4416666666666, 16.308333333333334,2.5,2.116666666666666, 2026-07-04 06:54:45,,
PUBLICZNA SZKOŁA PODSTAWOWA IM. 100. ROCZNICY ODZYSKANIA NIEPODLEGŁOŚCI PRZEZ POLSKĘ W KORZECKU, None, 26-060, KORZECKO, 20.40868672, 50.80193767, 63.458333333333336, 987.3416666666667, 14.583333333333334,2.775,1.991666666666666, 2026-07-04 06:54:45,,
SZKOŁA PODSTAWOWA IM. GENERAŁA STANISŁAWA MACZKA W BLIŻYNIE, UL. PIASKOWA, 26-120, BLIŻYN, 20.7611656, 51.10539138, 79.52499999999999, 984.3833333333333, 11.458333333333334,2.391666666666666,1.875, 2026-07-04 06:54:45,,
SZKOŁA PODSTAWOWA W OKSIE, UL. PL. M. REJA, 28-363, OKSA, 20.10227008, 50.72821359, 62.59166666666667, 986.5749999999999, 15.058333333333332,1.983333333333333,1.525, 2026-07-04 06:54:45,,
III LICEUM OGÓLNOKSZTAŁCĄCE W ZESPOLE SZKÓŁ NR 1 W PSZCZYNIE , UL. KAZIMIERZA WIELKIEGO, 43-200, PSZCZYNA, 18.945466, 49.965741, 71.22222222222223, 988.3222222222222, 15.08888888888889,2.511111111111111,1.922222222222222, 2026-07-04 06:54:45,,
SZKOŁA PODSTAWOWA W JELENIOWIE, None, 26-006, JELENIÓW, 21.116233057672765, 50.844493249563236, 69.65833333333333, 980.7833333333333, 13.65,2.025,1.716666666666666, 2026-07-04 06:54:45,,
SZKOŁA PODSTAWOWA W ŁYSAKOWIE, None, 28-300, ŁYSAKÓW DRUGI, 20.31178517, 50.59252463, 64.18181818181819, 986.0818181818181, 14.754545454545456,3.427272727272727,2.554545454545454, 2026-07-04 06:54:45,,
SPOŁECZNA SZKOŁA PODSTAWOWA NR 1 IM. KS.PROF. JÓZEFA TISCHNERA W TARNOWIE, UL. GUMNISKA, 33-100, TARNÓW, 21.00131621, 50.00814381, 60.10833333333333, 992.9499999999999, 17.108333333333334,3.283333333333333,2.775, 2026-07-04 06:54:45,,
SZKOŁA PODSTAWOWA IM. GEN. STANISŁAWA SKALSKIEGO W POLICHNIE, None, 26-060, POLICHNO, 20.3964092, 50.82155974, 65.52499999999999, 987.3333333333334, 14.141666666666666,1.741666666666666,1.466666666666666, 2026-07-04 06:54:45,,
TECHNIKUM W RACIĄŻU, UL. KILIŃSKIEGO, 09-140, RACIĄŻ, 20.127731, 52.778712, 61.35833333333333, 1000.4333333333334, 16.391666666666666,4.358333333333333,2.666666666666666, 2026-07-04 06:54:45,,
PUBLICZNA SZKOŁA PODSTAWOWA IM.HENRYKA SIENKIEWICZA W MYŚLISZEWICACH, None, 26-630, MYŚLISZEWICE, 21.290531299999998, 51.413341302261024, 66.88333333333334, 997.0, 14.200000000000001,3.5,2.858333333333333, 2026-07-04 06:54:45,,
SZKOŁA PODSTAWOWA NR 6 IM. DRA WŁADYSŁAWA GĘBIKA Z ODDZIAŁAMI INTEGRACYJNYMI W KWIDZYNIE, UL. GRUNWALDZKA, 82-500, KWIDZYN, 18.932667, 53.723949, 69.78333333333333, 1004.5833333333334, 16.8,4.675,3.016666666666667, 2026-07-04 06:54:45,,
SZKOŁA PODSTAWOWA W BRZEŚCIU, None, 28-400, BRZEŚCIE, 20.54586641, 50.5470206, 64.64166666666667, 992.3916666666665, 15.091666666666667,2.375,1.866666666666666, 2026-07-04 06:54:45,,
SZKOŁA PODSTAWOWA W LUBOWIDZU, UL. JANA PAWŁA II, 09-304, LUBOWIDZ, 19.842984, 53.120566, 74.67, 998.76, 14.86,1.6,0.7000000000000001, 2026-07-04 06:54:45,,
SZKOŁA PODSTAWOWA NR 2 IM. JANA PAWŁA II W GORZYCACH, UL. EDUKACJI NARODOWEJ, 39-432, GORZYCE, 21.83097317, 50.67218435, 78.85833333333333, 1000.0916666666667, 12.641666666666666,10.975,9.908333333333331, 2026-07-04 06:54:45,,
NIEPUBLICZNA SZKOŁA PODSTAWOWA W NIWCE, None, 33-130, NIWKA, 20.853454, 50.056594, 65.4, 996.1, 15.9,2.8,2.5, 2026-07-04 06:54:45,,
TECHNIKUM NR 2 W CZĘSTOCHOWIE, UL. WARSZAWSKA, 42-200, CZĘSTOCHOWA, 19.1485028, 50.7931394, 61.03333333333333, 988.8249999999999, 16.466666666666665,2.883333333333333,1.9749999999999992, 2026-07-04 06:54:45,,
SZKOŁA PODSTAWOWA IM. ORŁA BIAŁEGO W SZCZYTNEJ, UL. KOŚCIELNA, 57-330, SZCZYTNA, 16.44633002, 50.41610314, 77.81, 964.8799999999999, 11.14,2.16,1.75, 2026-07-04 06:54:45,,
PUBLICZNA SZKOŁA PODSTAWOWA IM. JANA KOCHANOWSKIEGO W WÓJCICACH, UL. GŁÓWNA, 55-220, WÓJCICE, 17.2122623, 50.4609086, 70.675, 1002.3416666666667, 14.65,3.616666666666666,3.091666666666667, 2026-07-04 06:54:45,,
PUBLICZNA SZKOŁA PODSTAWOWA W BIERZWNICY, None, 78-324, BIERZWNICA, 15.9112181, 53.7221891, 76.68333333333334, 999.5833333333334, 14.508333333333333,2.666666666666666,1.7249999999999992, 2026-07-04 06:54:45,,
I LICEUM OGÓLNOKSZTAŁCĄCE IM. BOLESŁAWA CHROBREGO W KŁODZKU, UL. WOJSKA POLSKIEGO, 57-300, KŁODZKO, 16.651149, 50.4373, 70.11111111111111, 984.3777777777777, 14.52222222222222,3.455555555555555,2.955555555555555, 2026-07-04 06:54:45,,
SZKOŁA PODSTAWOWA W BIENIOWICACH, None, 59-216, BIENIOWICE, 16.256564, 51.258614, 68.48333333333333, 1006.6916666666666, 15.1,2.324999999999999,1.791666666666666, 2026-07-04 06:54:45,,
SZKOŁA PODSTAWOWA IM. ŚW. JADWIGI ŚLĄSKIEJ W ŻERNIKACH WROCŁAWSKICH, UL. KOLEJOWA, 55-010, ŻERNIKI WROCŁAWSKIE, 17.0609105, 51.0305737, 67.58333333333333, 1003.75, 15.299999999999999,2.441666666666667,1.95, 2026-07-04 06:54:45,,
SZKOŁA PODSTAWOWA NR 4 Z ODDZIAŁAMI INTEGRACYJNYMI W BIELAWIE, UL. LUDWIKA WARYŃSKIEGO, 58-260, BIELAWA, 16.6008348, 50.6662832, 65.91818181818182, 975.4636363636364, 14.836363636363636,2.254545454545454,1.627272727272727, 2026-07-04 06:54:45,,
SZKOŁA PODSTAWOWA IM. JANA PAWŁA II W GRODZISZCZU, None, 58-112, GRODZISZCZE, 16.560664, 50.798212, 69.78333333333333, 991.3416666666667, 14.808333333333335,2.5749999999999997,1.9749999999999992, 2026-07-04 06:54:45,,
BRANŻOWA SZKOŁA I STOPNIA NR 6 W ZESPOLE SZKÓŁ PRZEMYSŁU SPOŻYWCZEGO IM. POWSTAŃCÓW WIELKOPOLSKICH W ŁODZI, UL. FRANCISZKAŃSKA, 91-845, ŁÓDŹ-BAŁUTY, 19.421884, 51.7848081, 63.458333333333336, 991.0666666666666, 14.666666666666666,4.041666666666667,2.591666666666667, 2026-07-04 06:54:45,,
TECHNIKUM NR 1 W ZESPOLE SZKÓŁ NR 1 IM. STANISŁAWA STASZICA W BOCHNI, UL. EDWARDA WINDAKIEWICZA, 32-700, BOCHNIA, 20.416325, 49.966639, 68.76666666666667, 989.0333333333333, 16.125,2.175,1.8499999999999992, 2026-07-04 06:54:45,,
SZKOŁA PODSTAWOWA IM. M. KOPERNIKA W KOŚCIELCU, None, 32-100, KOŚCIELEC, 20.3906858, 50.2001419, 67.85, 994.1, 15.341666666666667,2.891666666666667,2.6166666666666663, 2026-07-04 06:54:45,,
SZKOŁA PODSTAWOWA IM. MARII KONOPNICKIEJ W LIPINACH, None, 92-701, LIPINY, 19.67220915, 51.80665653, 66.19166666666666, 988.2083333333334, 14.066666666666668,3.5,2.258333333333333, 2026-07-04 06:54:45,,
I LICEUM OGÓLNOKSZTAŁCĄCE IM. MARCINA KROMERA W GORLICACH, UL. MARCINA KROMERA, 38-300, GORLICE, 21.155748, 49.659518, 56.46666666666667, 981.6916666666667, 16.808333333333334,2.633333333333333,2.183333333333333, 2026-07-04 06:54:45,,
SZKOŁA PODSTAWOWA IM. IGNACEGO ŁUKASIEWICZA W KOBYLANCE, None, 38-303, KOBYLANKA, 21.222151, 49.669007, 67.35454545454546, 983.5181818181819, 15.081818181818182,2.7818181818181813,2.245454545454545, 2026-07-04 06:54:45,,
SZKOŁA PODSTAWOWA IM.ŚWIĘTEJ KINGI W KORCZYNIE, None, 38-340, KORCZYNA, 21.255204, 49.702509, 71.7, 980.0909090909091, 13.854545454545455,2.436363636363636,2.018181818181818, 2026-07-04 06:54:45,,
TECHNIKUM W GOŁOTCZYŹNIE, UL. CIECHANOWSKA, 06-430, GOŁOTCZYZNA, 20.68880627301113, 52.79264333773238, 62.74166666666667, 999.3916666666665, 16.533333333333335,4.316666666666666,2.6166666666666663, 2026-07-04 06:54:45,,
SZKOŁA PODSTAWOWA IM. WŁADYSŁAWA JÓŹWICKIEGO W GÓRZNIE , UL. DŁUGA, 08-404, GÓRZNO, 21.705990699999997, 51.84700102762625, 65.24166666666666, 994.8416666666667, 16.283333333333335,4.741666666666666,3.3, 2026-07-04 06:54:45,,
SZKOŁA PODSTAWOWA NR 2 Z ODDZIAŁAMI INTEGRACYJNYMI IM. ŻOŁNIERZY A.K. II REJONU CELKÓW W MARKACH, UL. SZKOLNA, 05-270, MARKI, \t21.103744271164814, 52.31729535665526, 54.65, 1002.9, 17.416666666666668,3.75,2.383333333333333, 2026-07-04 06:54:45,,
SZKOŁA PODSTAWOWA IM.KAWALERÓW ORDERU UŚMIECHU W SIEROSŁAWICACH, None, 32-120, SIEROSŁAWICE, 20.461954, 50.141099, 66.31666666666666, 994.9083333333333, 15.975,3.158333333333333,2.658333333333333, 2026-07-04 06:54:45,,
SZKOŁA PODSTAWOWA IM.ŚW.JANA PAWŁA II W ZAWADACH, UL. KOŚCIUSZKI, 16-075, ZAWADY, 22.66793745, 53.15651651, 74.15555555555555, 1000.4000000000001, 15.677777777777777,2.2111111111111112,1.011111111111111, 2026-07-04 06:54:45,,
SZKOŁA PODSTAWOWA NR 2 IM. KRÓLOWEJ JADWIGI W CZECHOWICACH-DZIEDZICACH, UL. WĘGLOWA, 43-502, CZECHOWICE-DZIEDZICE, 19.0071238, 49.9283149, 70.625, 989.25, 15.85,2.916666666666666,2.325, 2026-07-04 06:54:45,,
SZKOŁA PODSTAWOWA IM. STANISŁAWA LUBOMIRSKIEGO W NOWYM WIŚNICZU, UL. SZKOLNA, 32-720, NOWY WIŚNICZ, 20.464022, 49.911873, 66.65833333333333, 987.2833333333333, 15.799999999999999,1.5750000000000002,1.45, 2026-07-04 06:54:45,,
SZKOŁA PODSTAWOWA NR 29 IM. TADEUSZA KOŚCIUSZKI W RZESZOWIE, UL. PARTYZANTÓW, 35-234, RZESZÓW, 22.00675633, 50.04931405, 59.625, 991.9, 17.075000000000003,3.225,2.45, 2026-07-04 06:54:45,,
PUBLICZNA SZKOŁA PODSTAWOWA IM.T. KOŚCIUSZKI W GŁOWACZOWIE, UL. WARECKA, 26-903, GŁOWACZÓW, 21.3187284, 51.6220175, 64.32222222222222, 999.1111111111111, 15.422222222222224,3.522222222222222,2.5666666666666678, 2026-07-04 06:54:45,,
SZKOŁA PODSTAWOWA SPECJALNA NR 150 W KRAKOWIE, AL. ALEJA ADOLFA DYGASIŃSKIEGO, 30-820, KRAKÓW-PODGÓRZE, 19.98983357116481, 50.02147308570759, 63.099999999999994, 994.6500000000001, 14.7,10.0,7.800000000000001, 2026-07-04 06:54:45,,
PUBLICZNA SZKOŁA PODSTAWOWA IM. JÓZEFA BRANDTA W OROŃSKU, UL. SZKOLNA, 26-505, OROŃSKO, 20.98980054, 51.315665, 70.63333333333334, 993.0333333333333, 13.841666666666667,3.383333333333333,2.416666666666666, 2026-07-04 06:54:45,,
PUBLICZNA SZKOŁA PODSTAWOWA IM. BATALIONÓW CHŁOPSKICH W KLECZANOWIE, None, 27-641, KLECZANÓW, 21.57103098, 50.71737244, 70.33333333333333, 986.0333333333333, 13.441666666666668,2.608333333333333,2.1, 2026-07-04 06:54:45,,
SZKOŁA PODSTAWOWA IM. BOHATERÓW WESTERPLATTE W ŁĘKAWICY, None, 33-156, ŁĘKAWICA, 19.6059700, 49.8417200, 65.65, 988.1416666666668, 15.775,2.475,2.025, 2026-07-04 06:54:45,,
SZKOŁA PODSTAWOWA W STAROCHĘCINACH, None, 26-060, STAROCHĘCINY, 20.48081695, 50.77685204, 64.05833333333334, 989.5500000000001, 15.333333333333334,2.4916666666666663,1.875, 2026-07-04 06:54:45,,
SZKOŁA PODSTAWOWA NR 6 IM. KS. JANA TWARDOWSKIEGO W PSZCZYNIE, UL. KSIĘŻYCOWA, 43-200, PSZCZYNA, 18.936162, 49.965097, 69.24166666666666, 991.0, 15.825000000000001,1.7833333333333332,1.608333333333333, 2026-07-04 06:54:45,,
SZKOŁA PODSTAWOWA IM.KAZIMIERZA PUŁASKIEGO W JADAMWOLI, None, 34-606, JADAMWOLA, 20.51122243, 49.58092142, 62.48333333333333, 970.1, 15.983333333333334,1.6416666666666662,1.383333333333333, 2026-07-04 06:54:45,,
SZKOŁA PODSTAWOWA NR 2 IM. MARII KONOPNICKIEJ W ŻYRARDOWIE, UL. GABRIELA NARUTOWICZA, 96-300, ŻYRARDÓW, 20.43801027, 52.05842119, 52.76666666666667, 1001.0666666666666, 17.150000000000002,3.125,2.2416666666666663, 2026-07-04 06:54:45,,
I LICEUM OGÓLNOKSZTAŁCĄCE IM. ZYGMUNTA KRASIŃSKIEGO W CIECHANOWIE, UL. 17 STYCZNIA, 06-400, CIECHANÓW, 20.59878057, 52.88501004, 59.3, 997.8818181818181, 17.136363636363637,3.727272727272727,2.4, 2026-07-04 06:54:45,,
SZKOŁA PODSTAWOWA W ŁUKOWEJ, None, 26-060, ŁUKOWA, 20.53811566, 50.72732867, 68.38333333333334, 986.3583333333332, 13.85,2.166666666666666,1.7000000000000002, 2026-07-04 06:54:45,,
SZKOŁA PODSTAWOWA W WOLICY, UL. SZKOLNA, 26-060, WOLICA, 20.47387736, 50.75410087, 70.02499999999999, 989.0, 13.516666666666666,2.6,1.983333333333333, 2026-07-04 06:54:45,,
SZKOŁA PODSTAWOWA IM. JANA PAWŁA II W ZBUCZYNIE, UL. JANA PAWŁA II, 08-106, ZBUCZYN, 22.44061361, 52.08688669, 62.642857142857146, 993.5, 16.37142857142857,4.357142857142857,2.628571428571428, 2026-07-04 06:54:45,,
TECHNIKUM NR 2 IM. EUGENIUSZA KWIATKOWSKIEGO W STARACHOWICACH, UL. 1 MAJA, 27-200, STARACHOWICE, 21.06313317, 51.05452968, 63.525, 985.5500000000001, 14.408333333333333,2.516666666666666,1.933333333333333, 2026-07-04 06:54:45,,
PUBLICZNA SZKOŁA PODSTAWOWA IM. JANA KOCHANOWSKIEGO W POLANACH, None, 26-680, POLANY, 21.11465600, 51.22610000, 62.35833333333333, 991.875, 15.299999999999999,2.891666666666667,2.333333333333333, 2026-07-04 06:54:45,,
SZKOŁA PODSTAWOWA W ZBELUTCE, None, 26-025, ZBELUTKA-STARA WIEŚ, 21.0993345, 50.7310922, 68.24166666666666, 973.7000000000002, 14.041666666666666,2.758333333333333,2.008333333333333, 2026-07-04 06:54:45,,
SZKOŁA PODSTAWOWA IM. STEFANA KARDYNAŁA WYSZYŃSKIEGO W PIERZCHNICY , UL. KARDYNAŁA STEFANA WYSZYŃSKIEGO, 26-015, PIERZCHNICA, 20.74729757, 50.6959636, 69.7, 982.875, 13.433333333333332,2.483333333333333,1.9083333333333328, 2026-07-04 06:54:45,,
SZKOŁA PODSTWOWA IM.KSIĘDZA CZESŁAWA PRZYSTASIA W LUTORYŻU, None, 36-040, LUTORYŻ, 21.91921265254002, 49.96511859568209 , 55.775, 990.75, 16.8,1.9625,1.6625, 2026-07-04 06:54:45,,
SZKOŁA PODSTAWOWA W BRDOWIE, UL. MICKIEWICZA, 62-620, BRDÓW, 18.7293986, 52.3533225, 61.76666666666667, 1001.7083333333334, 15.424999999999999,2.383333333333333,1.858333333333333, 2026-07-04 06:54:45,,
SZKOŁA PODSTAWOWA Z ODDZIAŁAMI INTEGRACYJNYMI NR 6 IM. SZARYCH SZEREGÓW W GRODZISKU MAZOWIECKIM, UL. SPORTOWA, 05-825, GRODZISK MAZOWIECKI, 20.6192335, 52.0987683, 59.89166666666667, 1003.1083333333335, 17.091666666666665,3.9,2.5749999999999997, 2026-07-04 06:54:45,,
SZKOŁA PODSTAWOWA NR 6 IM. ELIZY ORZESZKOWEJ W ŻYRARDOWIE, UL. JÓZEFA MIRECKIEGO, 96-300, ŻYRARDÓW, 20.446088, 52.057653, 61.94166666666666, 1001.8083333333333, 16.533333333333335,3.266666666666667,2.083333333333333, 2026-07-04 06:54:45,,
SZKOŁA PODSTAWOWA IM. 11 LISTOPADA W ŻÓŁWINIE, UL. SZKOLNA, 05-807, ŻÓŁWIN, 20.7249857, 52.09761779588044, 64.78333333333333, 1003.6500000000001, 16.116666666666667,3.324999999999999,2.458333333333333, 2026-07-04 06:54:45,,
LICEUM OGÓLNOKSZTAŁCĄCE IM. STEFANA ŻEROMSKIEGO W ŻYRARDOWIE, UL. JANINY JADWIGI KACPERSKIEJ, 96-300, ŻYRARDÓW, 20.44495564, 52.0675436, 62.40909090909091, 1003.5272727272727, 16.20909090909091,3.727272727272727,2.472727272727272, 2026-07-04 06:54:45,,
SZKOŁA PODSTAWOWA W ŚCINAWIE POLSKIEJ, None, 55-200, ŚCINAWA POLSKA, 17.33660972, 50.93346737, 61.74166666666667, 1003.0500000000001, 16.975,0.766666666666666,0.65, 2026-07-04 06:54:45,,
SZKOŁA PODSTAWOWA W ŚCINAWCE DOLNEJ, None, 57-410, ŚCINAWKA DOLNA, 16.5360171, 50.4966472, 78.84166666666667, 984.1416666666668, 11.808333333333332,2.858333333333333,2.475, 2026-07-04 06:54:45,,
I LICEUM OGÓLNOKSZTAŁCĄCE IM. ADAMA MICKIEWICZA W ŁAPACH, UL. BOHATERÓW WESTERPLATTE, 18-100, ŁAPY, 22.87657971, 52.98984475, 64.06666666666666, 996.1666666666666, 17.008333333333333,4.816666666666666,3.016666666666667, 2026-07-04 06:54:45,,
SZKOŁA PODSTAWOWA W WĘGRACH, UL. SZKOLNA, 55-020, WĘGRY, 17.0374566, 50.92746209, 70.35, 1002.4166666666666, 14.691666666666668,1.9,1.491666666666666, 2026-07-04 06:54:45,,
PUBLICZNA SZKOŁA PODSTAWOWA IM. MIKOŁAJA KOPERNIKA W BIENIĘDZICACH, None, 26-625, BIENIĘDZICE, 20.92852467, 51.41165831, 68.08, 994.0, 14.690000000000001,3.35,2.35, 2026-07-04 06:54:45,,
SAMORZĄDOWA SZKOŁA PODSTAWOWA IM. WOJSKA POLSKIEGO W WODZISŁAWIU, UL. SZKOLNA, 28-330, WODZISŁAW, 20.18925053, 50.51810713, 73.08181818181818, 988.2181818181817, 13.572727272727274,2.981818181818181,2.390909090909091, 2026-07-04 06:54:45,,
TECHNIKUM W JASIEŃCU, UL. CZERSKA, 05-600, JASIENIEC, 20.94031755, 51.82104731, 69.10833333333333, 999.275, 15.416666666666666,3.816666666666666,2.433333333333333, 2026-07-04 06:54:45,,
LICEUM OGÓLNOKSZTAŁCĄCE W ZESPOLE SZKÓŁ DRZEWNYCH I LEŚNYCH IM. JANA KOCHANOWSKIEGO W GARBATCE - LETNISKU, UL. HANKI LEWANDOWICZ, 26-930, GARBATKA-LETNISKO, 21.62967267, 51.49346798, 73.125, 996.7416666666667, 15.225,4.033333333333334,3.058333333333333, 2026-07-04 06:54:45,,
PUBLICZNA SZKOŁA PODSTAWOWA IM. JANA OLRYCHA SZANIECKIEGO W SZAŃCU, None, 28-100, SZANIEC,  20.691985097588677, 50.51627384074623, 60.76666666666667, 986.775, 15.508333333333333,2.091666666666667,1.808333333333333, 2026-07-04 06:54:45,,
SZKOŁA PODSTAWOWA W ZBOROWIE, UL. ZWIERZYNIEC, 28-131, ZBORÓW, 20.711351, 50.51339044, 69.68333333333334, 993.1166666666667, 15.1,2.6166666666666663,1.941666666666666, 2026-07-04 06:54:45,,
PUBLICZNA SZKOŁA PODSTAWOWA IM. POR. JÓZEFA MĄCZKI W ZALESZANACH, UL. SANDOMIERSKA, 37-415, ZALESZANY, 21.88785883, 50.64803753, 64.24166666666666, 997.6833333333334, 15.758333333333333,2.725,2.125, 2026-07-04 06:54:45,,
SZKOŁA PODSTAWOWA W SOLCU-ZDROJU, UL. 1 MAJA, 28-131, SOLEC-ZDRÓJ, 20.8893586, 50.37082674, 64.89166666666667, 995.2166666666667, 15.616666666666667,2.541666666666666,1.958333333333333, 2026-07-04 06:54:45,,
I LICEUM OGÓLNOKSZTAŁCĄCE W NOWEJ SARZYNIE, UL. KOMISJI EDUKACJI NARODOWEJ, 37-310, NOWA SARZYNA, 22.34167945, 50.31921557, 69.15833333333333, 997.4, 14.558333333333332,2.791666666666666,2.533333333333333, 2026-07-04 06:54:45,,
SZKOŁA PODSTAWOWA W SZRENIAWIE, None, 32-075, SZRENIAWA, 19.8690283, 50.3768057, 77.15833333333333, 982.5833333333334, 13.433333333333332,2.058333333333333,1.366666666666666, 2026-07-04 06:54:45,,
SZKOŁA PODSTAWOWA IM. WANDY RUTKIEWICZ W JANOWICACH WIELKICH, UL. PARTYZANTÓW, 58-520, JANOWICE WIELKIE, 15.925671, 50.88188, 78.64999999999999, 978.3333333333334, 13.6,14.558333333333332,12.525, 2026-07-04 06:54:45,,
SZKOŁA PODSTAWOWA W PTASZKOWIE, None, 58-400, PTASZKÓW, 16.0415642, 50.7927672, 72.30833333333332, 967.5, 13.366666666666667,2.3666666666666663,1.841666666666666, 2026-07-04 06:54:45,,
SZKOŁA PODSTAWOWA IM. ŚW. WOJCIECHA WE WŁODOWICACH, None, 57-400, WŁODOWICE, 16.4776033, 50.575772, 79.125, 976.5500000000001, 11.633333333333333,2.291666666666666,1.933333333333333, 2026-07-04 06:54:45,,
PUBLICZNA SZKOŁA PODSTAWOWA W LEWINIE KŁODZKIM, UL. KOŚCIELNA, 57-343, LEWIN KŁODZKI, 16.2909777, 50.4056168, 80.47777777777777, 966.6111111111111, 10.588888888888889,7.122222222222222,6.333333333333333, 2026-07-04 06:54:45,,
SZKOŁA PODSTAWOWA NR 3 IM. JANA PAWŁA II W SYCOWIE, UL. KOŚCIELNA, 56-500, SYCÓW, 17.72017, 51.3071, 64.29166666666667, 997.6916666666667, 15.541666666666666,2.908333333333333,1.8916666666666664, 2026-07-04 06:54:45,,
SZKOŁA PODSTAWOWA IM. BOLESŁAWA CHROBREGO W ŻMIGRODZIE, UL. HENRYKA SIENKIEWICZA, 55-140, ŻMIGRÓD, 16.9084728, 51.4700924, 69.04166666666667, 1007.9666666666667, 15.008333333333333,2.458333333333333,1.841666666666666, 2026-07-04 06:54:45,,
SPOŁECZNA SZKOŁA PODSTAWOWA W ŚWIDNICY, UL. ADAMA MICKIEWICZA, 58-100, ŚWIDNICA, 16.677532, 51.0740481, 68.72500000000001, 996.2583333333333, 15.125,2.5,1.916666666666666, 2026-07-04 06:54:45,,
SZKOŁA PODSTAWOWA W KRZESZOWIE, UL. BETLEJEMSKA, 58-400, KRZESZÓW, 16.0646514, 50.7333391, 70.24545454545455, 964.5727272727272, 13.609090909090908,3.681818181818181,3.054545454545454, 2026-07-04 06:54:45,,
SZKOŁA PODSTAWOWA W MOKRZESZOWIE, None, 58-160, MOKRZESZÓW, 16.371249, 50.8485349, 72.39166666666667, 984.9499999999999, 14.183333333333332,2.558333333333333,1.941666666666666, 2026-07-04 06:54:45,,
SZKOŁA PODSTAWOWA IM. ADAMA MICKIEWICZA W PĘGOWIE, UL. GŁÓWNA, 55-120, PĘGÓW, 16.9325607, 51.2463277, 70.66153846153847, 1003.6461538461538, 14.461538461538462,2.884615384615384,2.276923076923077, 2026-07-04 06:54:45,,
TECHNIKUM W BOLKOWIE, UL. NIEPODLEGŁOŚCI, 59-420, BOLKÓW, 16.1055099, 50.92060569, 70.11666666666666, 981.0749999999999, 14.266666666666666,2.225,1.6833333333333331, 2026-07-04 06:54:45,,
SZKOŁA PODSTAWOWA NR 4 IM.PROF. ROMANA PODOSKIEGO W OLEŚNICY, UL. IGNACEGO PADEREWSKIEGO, 56-400, OLEŚNICA, 17.3883791, 51.2047183, 68.40833333333333, 1000.1583333333333, 15.541666666666666,2.425,2.075, 2026-07-04 06:54:45,,
SZKOŁA PODSTAWOWA W PÓŁWIESKU MAŁYM, None, 87-337, PÓŁWIESK MAŁY, 19.2209039, 53.1414488, 59.083333333333336, 1000.2166666666667, 17.333333333333332,4.966666666666667,3.066666666666666, 2026-07-04 06:54:45,,
TECHNIKUM NR 9 W TORUNIU, UL. STEFANA BATOREGO, 87-100, TORUŃ, 18.6208871, 53.0272793, 66.39999999999999, 1009.4, 16.158333333333335,0.5416666666666661,0.208333333333333, 2026-07-04 06:54:45,,
SZKOŁA PODSTAWOWA W RUDNIE W ZESPOLE KSZTAŁCENIA I WYCHOWANIA W RUDNIE, UL. SZKOLNA, 83-121, RUDNO, 18.762284, 53.934177, 78.375, 1004.9666666666667, 15.358333333333334,5.591666666666666,3.516666666666667, 2026-07-04 06:54:45,,
SZKOŁA PODSTAWOWA W RACŁAWICZKACH, UL. SZKOLNA, 47-370, RACŁAWICZKI, 17.7792949, 50.4791824, 70.43333333333332, 996.4250000000001, 14.299999999999999,1.858333333333333,1.616666666666666, 2026-07-04 06:54:45,,
SZKOŁA PODSTAWOWA W KOMORNIKACH, UL. SZKOLNA, 47-364, KOMORNIKI, 17.900609, 50.433498, 66.20833333333333, 997.3833333333333, 15.208333333333334,2.133333333333333,1.75, 2026-07-04 06:54:45,,
TECHNIKUM NR 3 W GLIWICACH, UL. WARSZAWSKA, 44-100, GLIWICE, 18.6782411, 50.3080285, 68.28333333333333, 989.725, 15.950000000000001,3.816666666666666,3.025, 2026-07-04 06:54:45,,
SZKOŁA PODSTAWOWA NR 20 IM.II MORSKIEGO PUŁKU STRZELCÓW W GDYNI, UL. STARODWORCOWA, 81-575, GDYNIA, 18.495846, 54.464583, 85.31, 997.61, 14.65,6.65,4.1, 2026-07-04 06:54:45,,
SZKOŁA PODSTAWOWA IM. PRZYJACIÓŁ ZIEMI W KŁODAWIE, None, 89-632, KŁODAWA, 17.6377441, 53.745006, 76.60000000000001, 995.75, 14.533333333333333,4.166666666666667,2.65, 2026-07-04 06:54:45,,
SZKOŁA PODSTAWOWA NR 1 IM. ZDOBYWCÓW PRZESTWORZY W CZĘSTOCHOWIE, UL. KSIĘŻYCOWA, 42-202, CZĘSTOCHOWA, 19.1202991, 50.8231186, 66.53333333333333, 989.725, 15.341666666666667,1.858333333333333,0.808333333333333, 2026-07-04 06:54:45,,
SZKOŁA PODSTAWOWA NR 2 IM. STANISŁAWA STASZICA W OSTROŁĘCE, UL. PAPIERNICZA, 07-410, OSTROŁĘKA, 21.5825833, 53.0888402, 69.55833333333334, 1001.7333333333332, 16.333333333333332,3.966666666666666,2.591666666666667, 2026-07-04 06:54:45,,
SZKOŁA PODSTAWOWA NR 67 IM. WŁADYSŁAWA ŁOKIETKA W KRAKOWIE, UL. KACZORÓWKA, 31-264, KRAKÓW-KROWODRZA, 19.9056364, 50.1069438, 72.05, 990.375, 13.958333333333334,3.9,3.191666666666666, 2026-07-04 06:54:45,,
IV LICEUM OGÓLNOKSZTAŁCĄCE IM. HENRYKA SIENKIEWICZA W CZĘSTOCHOWIE, AL. ALEJA NAJŚWIĘTSZEJ MARYI PANNY, 42-217, CZĘSTOCHOWA, 19.1090584, 50.8125266, 61.56666666666667, 986.9777777777776, 16.07777777777778,3.266666666666666,2.144444444444444, 2026-07-04 06:54:45,,
PUBLICZNA KATOLICKA SZKOŁA PODSTAWOWA IM. ŚW. JOANNY BERETTY MOLLI W KRAKOWIE, UL. STELMACHÓW, 31-349, KRAKÓW-KROWODRZA, 19.9043827, 50.0953292, 75.14999999999999, 984.9416666666666, 13.6,2.891666666666667,2.608333333333333, 2026-07-04 06:54:45,,
SZKOŁA PODSTAWOWA NR 33 IM. M. KOWNACKIEJ W CZĘSTOCHOWIE, UL. SEWERYNA GOSZCZYŃSKIEGO, 42-217, CZĘSTOCHOWA, 19.1097087, 50.7990464, 64.64999999999999, 988.0375, 16.3375,2.5875,1.8125, 2026-07-04 06:54:45,,
SZKOŁA PODSTAWOWA IM.JANA KOCHANOWSKIEGO W CZARNYM LESIE, UL. SZKOLNA, 42-233, CZARNY LAS, 19.0845102, 50.8928973, 55.958333333333336, 990.475, 17.474999999999998,2.458333333333333,1.9, 2026-07-04 06:54:45,,
SZKOŁA PODSTAWOWA NR 49 IM. J.KUSOCIŃSKIEGO W CZĘSTOCHOWIE, UL. JESIENNA, 42-208, CZĘSTOCHOWA, 19.146175, 50.7703289, 67.71111111111111, 986.5444444444444, 14.866666666666667,1.388888888888888,0.711111111111111, 2026-07-04 06:54:45,,
SZKOŁA PODSTAWOWA W SEWERYNOWIE, None, 07-120, SEWERYNÓW, 21.7538805, 52.4131115, 64.27499999999999, 996.9916666666667, 16.675,3.808333333333333,2.258333333333333, 2026-07-04 06:54:45,,
SZKOŁA PODSTAWOWA IM. GEN.STANISŁAWA MACZKA W BOGUCHWALE, UL. TEODORA LUBOMIRSKIEGO, 36-040, BOGUCHWAŁA, 21.9468603, 49.9849727, 55.36666666666667, 990.6666666666666, 17.108333333333334,2.5749999999999997,2.075, 2026-07-04 06:54:45,,
SZKOŁA PODSTAWOWA IM. PROF. JANA SAJDAKA W BURZYNIE, None, 33-170, BURZYN, 21.0614367, 49.8737482, 68.3, 989.3166666666666, 15.458333333333334,2.208333333333333,1.8916666666666664, 2026-07-04 06:54:45,,
SZKOŁA PODSTAWOWA IM. KORNELA MAKUSZYŃSKIEGO W DĄBRÓWCE TUCHOWSKIEJ, None, 33-170, DĄBRÓWKA TUCHOWSKA, 21.0449769, 49.8733226, 71.02499999999999, 992.6333333333333, 14.924999999999999,1.9749999999999992,1.708333333333333, 2026-07-04 06:54:45,,
PUBLICZNA SZKOŁA PODSTAWOWA W BĄKOWEJ, None, 27-310, BĄKOWA, 21.462254, 51.209968, 68.98888888888888, 994.0999999999999, 14.91111111111111,3.855555555555556,2.5444444444444443, 2026-07-04 06:54:45,,
LICEUM OGÓLNOKSZTAŁCĄCE W PRZASNYSZU, UL. MAZOWIECKA, 06-300, PRZASNYSZ, 20.894694468872185, 53.02520296443298\t, 66.24166666666666, 998.4499999999999, 16.0,4.375,2.766666666666667, 2026-07-04 06:54:45,,
BRANŻOWA SZKOŁA I STOPNIA W PRZASNYSZU, UL. MAZOWIECKA, 06-300, PRZASNYSZ, 20.870424368871873\t, 53.01786487865621, 69.20833333333333, 998.0500000000001, 15.608333333333334,3.675,2.35, 2026-07-04 06:54:45,,
TECHNIKUM W ZESPOLE SZKÓŁ POWIATOWYCH IM. MJRA HENRYKA SUCHARSKIEGO W PRZASNYSZU, UL. MAZOWIECKA, 06-300, PRZASNYSZ, 20.879801542327236, 53.015665079411164, 61.125, 998.2125, 17.475,3.625,2.425, 2026-07-04 06:54:45,,
SZKOŁA PODSTAWOWA IM. FELIKSA NOWOWIEJSKIEGO W WYDMINACH, UL. GRUNWALDZKA, 11-510, WYDMINY, 22.034963, 53.9804304, 77.91666666666667, 992.0083333333333, 15.258333333333333,2.55,1.875, 2026-07-04 06:54:45,,
TECHIKUM IM. JANA PAWŁA II W ŻARNOWCU, UL. KRAKOWSKA, 42-439, ŻARNOWIEC, 19.8627098, 50.4785469, 63.666666666666664, 983.4666666666667, 15.416666666666666,1.933333333333333,1.466666666666666, 2026-07-04 06:54:45,,
SZKOŁA PODSTAWOWA NR 3 IM. ŚW. MAKSYMILIANA MARII KOLBEGO W CHMIELNIKU, None, 36-016, CHMIELNIK, 22.153376, 49.967673, 81.20833333333333, 987.0749999999999, 11.041666666666666,2.875,2.449999999999999, 2026-07-04 06:54:45,,
SZKOŁA PODSTAWOWA Z ODDZIAŁAMI INTEGRACYJNYMI IM. JANA PAWŁA II W PANIÓWKACH, UL. ZWYCIĘSTWA, 44-177, PANIÓWKI, 18.7807475, 50.2326931, 75.47500000000001, 993.1999999999999, 14.708333333333334,3.141666666666667,2.458333333333333, 2026-07-04 06:54:45,,
SZKOŁA PODSTAWOWA NR 12 IM. JÓZEFA JANIKA W MIKOŁOWIE, UL. SZKOLNA, 43-196, MIKOŁÓW, 18.79996, 50.1842309, 77.09166666666667, 985.6416666666668, 13.549999999999999,2.308333333333333,1.491666666666666, 2026-07-04 06:54:45,,
SZKOŁA PODSTAWOWA IM. ORŁA BIAŁEGO W WYKOWIE, None, 18-500, WYKOWO, 21.919300168509835, 53.4743330561782, 84.29166666666667, 999.15, 16.3,2.15,0.95, 2026-07-04 06:54:45,,
SZKOŁA PODSTAWOWA IM. ŚW. JADWIGI KRÓLOWEJ W KAMIENIU PRUSINIE, None, 36-053, KAMIEŃ, 22.13142067, 50.34420441, 71.04166666666667, 991.2333333333332, 13.341666666666667,2.4916666666666663,2.0, 2026-07-04 06:54:45,,
SZKOŁA PODSTAWOWA W SKÓRCU, UL. SIEDLECKA, 08-114, SKÓRZEC, 22.13605362, 52.10761735, 60.94444444444444, 992.6222222222223, 16.61111111111111,4.622222222222223,2.644444444444444, 2026-07-04 06:54:45,,
SZKOŁA PODSTAWOWA NR 3 IM. MARII KONOPNICKIEJ W ŁOCHOWIE, UL. 1 MAJA, 07-130, ŁOCHÓW, 21.68182, 52.5307, 66.03333333333333, 1002.75, 16.349999999999998,0.641666666666666,0.316666666666666, 2026-07-04 06:54:45,,
SZKOŁA PODSTAWOWA IM.ŻOŁNIERZY II ARMII WOJSKA POLSKIEGO W ZESPOLE OŚWIATOWO-WYCHOWAWCZYM W BIAŁKACH , UL. DIAMENTOWA, 08-110, BIAŁKI, 22.292238, 52.131471, 64.51666666666667, 994.475, 16.208333333333332,3.55,2.483333333333333, 2026-07-04 06:54:45,,
SZKOŁA PODSTAWOWA W ZESPOLE OŚWIATOWYM IM. JANA PAWŁA II W STOKU LACKIM , UL. SIEDLECKA, 08-110, STOK LACKI, 22.35006721, 52.16135264, 61.5, 995.8555555555556, 16.0,2.7,1.955555555555555, 2026-07-04 06:54:45,,
SZKOŁA PODSTAWOWA IM. 18 DYWIZJI PIECHOTY ZIEMI ŁOMŻYŃSKIEJ W ANDRZEJEWIE, UL. WARSZAWSKA, 07-305, ANDRZEJEWO, 22.19398993, 52.82792464, 64.05, 996.725, 16.608333333333334,3.566666666666666,2.5666666666666678, 2026-07-04 06:54:45,,
SZKOŁA PODSTAWOWA IM.JANA KOCHANOWSKIEGO W ŚWIDNIKU, None, 34-606, ŚWIDNIK, 20.5329659, 49.5933178, 69.84166666666667, 974.725, 15.4,1.55,1.275, 2026-07-04 06:54:45,,
SZKOŁA PODSTAWOWA W ULATOWIE-ADAMACH, None, 06-316, ULATOWO-ADAMY, 20.9328136, 53.1650883, 68.43333333333334, 997.0666666666666, 15.608333333333334,6.016666666666667,3.766666666666666, 2026-07-04 06:54:45,,
SZKOŁA PODSTAWOWA IM. ADAMA MICKIEWICZA W JAKSICACH, None, 32-200, JAKSICE, 20.010296, 50.322967, 66.57777777777778, 986.0666666666667, 15.988888888888889,3.2,2.488888888888889, 2026-07-04 06:54:45,,
SZKOŁA PODSTAWOWA IM. ŚW. KRÓLOWEJ JADWIGI W HERMANOWEJ, None, 36-020, HERMANOWA, 22.0188654, 49.9417235, 60.550000000000004, 986.4250000000001, 16.2,2.3,1.7833333333333332, 2026-07-04 06:54:45,,
PUBLICZNA SZKOŁA PODSTAWOWA IM. ŚW. KINGI W ŁĄKCIE DOLNEJ , None, 32-733, ŁĄKTA DOLNA, 20.399763, 49.8388069, 64.97500000000001, 987.8083333333333, 16.7,1.983333333333333,1.608333333333333, 2026-07-04 06:54:45,,
SZKOŁA PODSTAWOWA IM. S. CZESŁAWY LOREK W BICZYCACH DOLNYCH, None, 33-395, BICZYCE DOLNE, 20.6443899, 49.6312294, 67.45, 985.4916666666667, 16.391666666666666,2.9,2.416666666666666, 2026-07-04 06:54:45,,
OGÓLNOKSZTAŁCĄCE LICEUM AKADEMICKIE JEZUITÓW W NOWYM SĄCZU, UL. PIOTRA SKARGI, 33-300, NOWY SĄCZ, 20.69132733, 49.62662433, 73.625, 985.5500000000001, 14.825000000000001,5.725,4.8, 2026-07-04 06:54:45,,
SZKOŁA PODSTAWOWA IM. JANA PAWŁA II - PAPIEŻA POLAKA W STARYM LUBOTYNIU, None, 07-303, STARY LUBOTYŃ, 21.9359049, 52.932735, 64.88333333333334, 997.4499999999999, 16.691666666666666,4.141666666666667,2.525, 2026-07-04 06:54:45,,
SZKOŁA PODSTAWOWA NR 6 Z ODDZIAŁAMI INTEGRACYJNYMI IM. JANA PAWŁA II W ŁAZISKACH GÓRNYCH, UL. WYRSKA, 43-173, ŁAZISKA GÓRNE, 18.8703811, 50.1362116, 70.8, 984.0, 15.2,2.8,2.3, 2026-07-04 06:54:45,,
TECHNIKUM DLA MŁODZIEŻY TEB EDUKACJA W NOWYM SĄCZU, UL. RYNEK, 33-300, NOWY SĄCZ, 20.6900064, 49.62567283, 70.93333333333334, 984.3583333333332, 15.816666666666668,2.666666666666666,2.4, 2026-07-04 06:54:45,,
BRANŻOWA SZKOŁA I STOPNIA NR 2 W NOWYM SĄCZU, UL. KRÓLOWEJ JADWIGI, 33-300, NOWY SĄCZ, 20.707689, 49.613478, 77.26666666666667, 984.4666666666667, 14.950000000000001,3.475,3.191666666666666, 2026-07-04 06:54:45,,
SZKOŁA PODSTAWOWA W STRZEGOCINIE, None, 06-150, STRZEGOCIN, 20.84085873, 52.68602636, 59.824999999999996, 996.3166666666666, 16.741666666666667,3.991666666666666,2.416666666666666, 2026-07-04 06:54:45,,
SZKOŁA PODSTAWOWA NR 15 IM. BOHATERÓW SĄDECCZYZNY W NOWYM SĄCZU, UL. 29 LISTOPADA, 33-300, NOWY SĄCZ, 20.7136659, 49.6028522, 73.51666666666667, 981.5166666666668, 14.808333333333332,2.4916666666666663,2.275, 2026-07-04 06:54:45,,
