NAME,STREET,POST_CODE,CITY,LONGITUDE,LATITUDE,HUMIDITY_AVG,PRESSURE_AVG,TEMPERATURE_AVG,PM10_AVG,PM25_AVG,TIMESTAMP
SZKOŁA PODSTAWOWA IM. MARIANA FALSKIEGO W KRASZEWICACH, UL. SZKOLNA, 63-522, KRASZEWICE,18.22403,51.51563, 0.1, 1008.4333333333334, 0.0,0.233333333333333,0.14, 2026-07-20 20:06:22
SZKOŁA PODSTAWOWA WE WRZĄSOWICACH, UL. SZKOLNA, 32-040, WRZĄSOWICE,19.94282,49.96103, 39.63333333333333, 978.375, 23.400000000000002,3.041666666666666,2.716666666666667, 2026-07-20 20:06:22
ZESPÓŁ SZKÓŁ NR 1 W PSZCZYNIE, UL. KAZIMIERZA WIELKIEGO, 43-200, PSZCZYNA,18.9457058,49.965883, 29.166666666666668, 1000.0, 28.8,0.133333333333333,0.083333333333333, 2026-07-20 20:06:22
ZESPÓŁ SZKÓŁ IM. POWSTAŃCÓW WIELKOPOLSKICH W JANKOWIE PRZYGODZKIM, SZKOLNA, 63-421, JANKÓW PRZYGODZKI,17.7889069,51.596172, 99.90000000000002, 992.4, 16.4,21.3,11.15, 2026-07-20 20:06:22
SZKOŁA PODSTAWOWA NR 7 IM. ŻOŁNIERZY WRZEŚNIA W ĆWIKLICACH, UL. MĘCZENNIKÓW OŚWIĘCIMSKICH, 43-229, ĆWIKLICE,18.989839,49.971937, 50.1, 986.1333333333333, 23.333333333333332,1.533333333333333,0.7966666666666661, 2026-07-20 20:06:22
SZKOŁA PODSTAWOWA NR 12 W STUDZIONCE, UL. JORDANA, 43-245, STUDZIONKA,18.774985,49.9603559, 27.96666666666667, 992.1333333333333, 27.400000000000002,0.6333333333333331,0.33, 2026-07-20 20:06:22
ZESPÓŁ SZKOLNO-PRZEDSZKOLNY W PIASKU, SZKOLNA, 43-211, PIASEK,18.94634,50.00955, 35.5, 995.0666666666666, 24.433333333333334,1.9,1.03, 2026-07-20 20:06:22
ZESPÓŁ SZKOLNO-PRZEDSZKOLNY W ŁĄCE, FITELBERGA, 43-241, ŁĄKA,18.906757,49.9582444, 32.800000000000004, 991.1, 27.900000000000002,0.9333333333333332,0.529999999999999, 2026-07-20 20:06:22
SZKOŁA PODSTAWOWA NR 3 W LUBONIU, ARMII POZNAŃ, 62-030, LUBOŃ,16.8968,52.3481, 87.03333333333335, 993.3666666666667, 18.933333333333334,1.266666666666666,0.636666666666666, 2026-07-20 20:06:22
ZESPÓŁ SZKÓŁ PONADGIMNAZJALNYCH CENTRUM KSZTAŁCENIA USTAWICZNEGO W PRZYGODZICACH, PTR, 63-421, PRZYGODZICE,17.822685,51.59023, 87.33333333333333, 1005.0, 14.866666666666667,1.099999999999999,0.603333333333333, 2026-07-20 20:06:22
LICEUM OGÓLNOKSZTAŁCĄCE IM. WŁADYSŁAWA JAGIEŁŁY W ODOLANOWIE, KROTOSZYŃSKA, 63-430, ODOLANÓW,17.66024,51.58063, 73.43333333333332, 1000.8666666666667, 18.366666666666667,1.966666666666666,1.0, 2026-07-20 20:06:22
ZESPÓŁ SZKÓŁ W PIOTROWIE, , 62-814, PIOTRÓW,18.05485,51.8157, 69.10000000000001, 1001.1999999999999, 18.599999999999998,0.166666666666666,0.099999999999999, 2026-07-20 20:06:22
SZKOŁA PODSTAWOWA W CZARNYMLESIE, , 63-421, CZARNYLAS,17.762604,51.508366, 77.53333333333333, 995.9333333333334, 16.866666666666667,0.0,0.0, 2026-07-20 20:06:22
SZKOŁA PODSTAWOWA NR 2 IM. AUGUSTA HR. CIESZKOWSKIEGO W LUBONIU, ŻABIKOWSKA, 62-030, LUBOŃ,16.878431,52.346672, 71.0, 1006.4333333333334, 21.400000000000002,0.466666666666666,0.253333333333333, 2026-07-20 20:06:22
SZKOŁA PODSTAWOWA IM. POWSTAŃCÓW WIELKOPOLSKICH W DORUCHOWIE, KALISKA, 63-505, DORUCHÓW,18.0786,51.4189, 69.2, 1019.6, 17.900000000000002,0.033333333333333,0.02, 2026-07-20 20:06:22
SZKOŁA PODSTAWOWA IM. MIKOŁAJA KOPERNIKA W BUKOWCU, SZKOLNA, 95-006, BUKOWIEC,19.6757,51.6918, 78.0, 985.4333333333334, 22.833333333333332,1.033333333333333,0.58, 2026-07-20 20:06:22
SZKOŁA PODSTAWOWA IM. MARII KONOPNICKIEJ W KOTLINIE, MARII KONOPNICKIEJ, 63-220, KOTLIN,17.645437,51.91866, 89.60000000000001, 997.6999999999999, 18.433333333333334,0.0,0.0, 2026-07-20 20:06:22
SZKOŁA PODSTAWOWA NR 2 W OTMUCHOWIE, KALINOWA, 48-385, OTMUCHÓW,17.213,50.46535, 53.4, 996.0, 21.333333333333332,4.8,2.763333333333333, 2026-07-20 20:06:22
SZKOŁA PODSTAWOWA IM. BOHATERÓW POWSTAŃ ŚLĄSKICH W KAŁKOWIE, , 48-364, KAŁKÓW,17.185241,50.4042, 38.833333333333336, 990.9, 22.400000000000002,0.533333333333333,0.296666666666666, 2026-07-20 20:06:22
SZKOŁA PODSTAWOWA W MACIEJOWICACH, , 48-385, MACIEJOWICE,17.13497,50.4998, 45.699999999999996, 982.4666666666667, 21.53333333333333,0.0,0.0, 2026-07-20 20:06:22
TEST SZKOŁA, ul Testowa, 00-000, TESTCITY,-157.52969778504766,1.8586845937815497, 37.266666666666666, 999.1333333333333, 25.166666666666668,2.3666666666666663,1.303333333333333, 2026-07-20 20:06:22
ZESPÓŁ EDUKACYJNY W KONOTOPIE, PL. POWSTAŃCÓW WIELKOPOLSKICH, 67-416, KONOTOP,15.9031,51.93023, 54.53333333333333, 1007.9, 21.666666666666668,0.5,0.29, 2026-07-20 20:06:22
PRZEDSZKOLE NR 6 W BOCHNI, MUROWIANKA, 32-700, BOCHNIA,20.4415,49.96533, 35.833333333333336, 1003.9333333333334, 24.53333333333333,1.966666666666666,1.066666666666666, 2026-07-20 20:06:22
PUBLICZNA SZKOŁA PODSTAWOWA W SZYMISZOWIE, SZKOLNA, 47-161, SZYMISZÓW,18.21983,50.53656, 50.0, 993.0333333333333, 21.96666666666667,0.866666666666666,0.506666666666666, 2026-07-20 20:06:22
PUBLICZNA SZKOŁA PODSTAWOWA W ROZMIERCE, SZKOLNA, 47-171, ROZMIERKA,18.26905,50.56072, 1.0, 1021.5, 21.3,0.066666666666666,0.033333333333333, 2026-07-20 20:06:22
SZKOŁA PODSTAWOWA IM. ORŁA BIAŁEGO W KUROWICACH FILIA W WOLI RAKOWEJ, SZKOLNA, 95-006, WOLA RAKOWA,19.61157,51.67447, 83.43333333333334, 992.0, 20.033333333333335,0.3,0.166666666666666, 2026-07-20 20:06:22
SZKOŁA PODSTAWOWA NR 8 IM. JÓZEFA WESZKI W RUDOŁTOWICACH, KRZYWOŃ, 43-220, RUDOŁTOWICE,19.00171,49.95711, 99.90000000000002, 996.7999999999998, 14.1,11.1,5.32, 2026-07-20 20:06:22
ZESPÓŁ SZKOLNO-PRZEDSZKOLNY W WIŚLE WIELKIEJ, HODOWCÓW, 43-243, WISŁA WIELKA,18.8532,49.95291, 46.46666666666667, 989.6333333333333, 22.566666666666666,0.9333333333333332,0.52, 2026-07-20 20:06:22
SZKOŁA PODSTAWOWA IM. MARKA PRAWEGO W JEMIELNICY, SZKOLNA, 47-133, JEMIELNICA,18.380122,50.548993, 54.53333333333334, 995.9666666666667, 21.366666666666664,1.366666666666666,0.746666666666666, 2026-07-20 20:06:22
SZKOŁA PODSTAWOWA NR 2 IM. ŚW. JADWIGI ŚLĄSKIEJ W PSZCZYNIE, KATOWICKA, 43-200, PSZCZYNA,18.947994,49.992568, 38.46666666666667, 993.6, 25.599999999999998,0.466666666666666,0.276666666666666, 2026-07-20 20:06:22
ZESPÓŁ SZKÓŁ SPECJALNYCH W OSTROWCU ŚWIĘTOKRZYSKIM, IŁZECKA, 27-400, OSTROWIEC ŚWIĘTOKRZYSKI,21.386931,50.942931, 99.90000000000002, 1006.9666666666667, 24.53333333333333,1.266666666666666,0.7433333333333331, 2026-07-20 20:06:22
ZESPÓŁ SZKOLNO-PRZEDSZKOLNY W JANKOWICACH, BAZIOWA, 43-215, JANKOWICE,18.989423,50.002529, 29.0, 936.9, 23.3,28.0,17.0, 2026-07-20 20:06:22
SZKOŁA PODSTAWOWA NR 4 IM. JÓZEFA PUKOWCA W PSZCZYNIE, ZYGMUNTA KRASIŃSKIEGO, 43-200, PSZCZYNA,18.961125,49.971182, 42.03333333333333, 988.6, 22.666666666666668,4.766666666666668,2.793333333333333, 2026-07-20 20:06:22
ZESPÓŁ SZKÓŁ W OTMUCHOWIE, KRAKOWSKA, 48-385, OTMUCHÓW,17.167634,50.4705, 34.13333333333333, 988.7333333333332, 23.933333333333334,0.199999999999999,0.146666666666666, 2026-07-20 20:06:22
SZKOŁA PODSTAWOWA NR 60IM. IGNACEGO ŁUKASZEWICZA W CZECHOWICACH-DZIEDZICACH, UL. ŁUKASIEWICZA, 43-502, CZECHWICE-DZIEDZICE,19.016493,49.899404, 33.03333333333333, 980.6, 23.166666666666668,0.5,0.266666666666666, 2026-07-20 20:06:22
SZKOŁA PODSTAWOWA NR 4 IM. GUSTAWA MORCINKA W SŁUPSKU, UL. LESZCZYŃSKIEGO, 76-200, SŁUPSK,17.005017,54.475286, 83.93333333333334, 1006.1999999999999, 15.733333333333334,1.4,0.746666666666666, 2026-07-20 20:06:22
SZKOŁA PODSTAWOWA W KLESZCZOWIE, UL. SZKOLNA, 44-164, KLESZCZÓW,18.52751,50.344057, 61.9, 992.9, 21.2,0.0,0.0, 2026-07-20 20:06:22
SZKOŁA PODSTAWOWA NR 5 IM. GRYFITÓW W SŁUPSKU, UL. HUBALCZYKÓW, 76-200, SŁUPSK,17.062723,54.455744, 86.66666666666667, 1005.0333333333333, 14.833333333333334,1.133333333333333,0.586666666666666, 2026-07-20 20:06:22
ZESPÓŁ SZKOLNO-PRZEDSZKOLNY W POTĘPIE, UL. TARNOGÓRSKA, 42-693, POTĘPA,18.662519,50.565309, 99.90000000000002, 1011.9, 20.866666666666664,0.6333333333333331,0.32, 2026-07-20 20:06:22
SZKOŁA PODSTAWOWA IM. MIKOŁAJA REJA W GORZYCZKACH, UL. WIEJSKA, 44-350, GORZYCZKI,18.399689,49.944774, 44.53333333333333, 987.5666666666666, 22.5,0.066666666666666,0.036666666666666, 2026-07-20 20:06:22
SZKOŁA PODSTAWOWA NR 6 IM. LUDWIKA WARYŃSKIEGO W SŁUPSKU, UL. STARZYŃSKIEGO, 76-200, SŁUPSK,17.023811,54.46598, 99.90000000000002, 1009.7666666666668, 15.066666666666668,0.233333333333333,0.126666666666666, 2026-07-20 20:06:22
SZKOŁA PODSTAWOWA IM. JANA BRZECHWY W KOBIÓRZE, UL. TUWIMA, 43-210, KOBIÓR,18.930274,50.060752, 99.90000000000002, 989.8333333333334, 23.099999999999998,3.633333333333333,2.223333333333333, 2026-07-20 20:06:22
SZKOŁA PODSTAWOWA W PONISZOWICACH, UL. GLIWICKA, 44-172, PONISZOWICE,18.458674,50.40922, 50.300000000000004, 987.6, 24.2,0.0,0.0, 2026-07-20 20:06:22
SZKOŁA PODSTAWOWA IM. ORŁA BIAŁEGO W SOKOŁOWICACH, SOKOŁOWICE, 56-400, SOKOŁOWICE,17.4469,51.245, 83.5, 994.6666666666666, 17.033333333333335,2.566666666666666,1.373333333333333, 2026-07-20 20:06:22
SZKOŁA PODSTAWOWA IM. UNICEF W LIGOCIE MAŁEJ, LIGOTA MAŁA, 56-400, LIGOTA MAŁA,17.365476,51.142467, 25.599999999999998, 968.7333333333332, 31.433333333333334,3.633333333333333,2.193333333333333, 2026-07-20 20:06:22
SZKOŁA PODSTAWOWA GMINY OLEŚNICA W OLEŚNICY, WILEŃSKA, 56-400, OLEŚNICA,17.41034,51.2095, 99.90000000000002, 1006.9333333333334, 21.033333333333335,0.133333333333333,0.076666666666666, 2026-07-20 20:06:22
SZKOŁA PODSTAWOWA NR 19 W BRZEŹCACH, POKOJU, 43-200, BRZEŹCE,18.832539,49.984943, 28.400000000000002, 988.0666666666666, 27.96666666666667,0.766666666666666,0.43, 2026-07-20 20:06:22
ZESPÓŁ SZKOLNO-PRZEDSZKOLNY W RADOSTOWIE ŚREDNIM, RADOSTÓW ŚREDNI, 59-800, RADOSTÓW ŚREDNI,15.36293,51.12153, 27.5, 983.0, 28.3,0.5,0.28, 2026-07-20 20:06:22
ZESPÓŁ SZKOLNO-PRZEDSZKOLNY W KOŚCIELNIKU, KOŚCIELNIK, 59-800, KOŚCIELNIK,15.29682,51.08393, 61.9, 995.9, 17.5,0.3,0.15, 2026-07-20 20:06:22
SZKOŁA PODSTAWOWA IM. POLSKICH ODKRYWCÓW I PODRÓŻNIKÓW W KOBIERZYCACH, PARKOWA, 55-040, KOBIERZYCE,16.933169,50.971851, 82.13333333333334, 988.9666666666666, 16.599999999999998,1.399999999999999,0.779999999999999, 2026-07-20 20:06:22
SZKOŁA PODSTAWOWA IM. UNICEF W BIELANACH WROCŁAWSKICH, AKACJOWA, 55-040, BIELANY WROCŁAWSKIE,16.971022,51.03812, 62.43333333333334, 1001.5666666666666, 18.7,2.233333333333333,1.349999999999999, 2026-07-20 20:06:22
SZKOŁA PODSTAWOWA IM. JANUSZA KORCZAKA W WYSOKIEJ, CHABROWA, 52-200, WYSOKA,17.007729,51.047504, 86.26666666666665, 996.9666666666667, 20.266666666666666,0.3,0.153333333333333, 2026-07-20 20:06:22
SZKOŁA PODSTAWOWA IM. TADEUSZA MAZOWIECKIEGO W TYŃCU MAŁYM, SZKOLNA, 55-040, TYNIEC MAŁY,16.909195,51.0216, 67.8, 1019.16, 2.5,39.96,21.93, 2026-07-20 20:06:22
SZKOŁA PODSTAWOWA IM. ROMUALDA TRAUGUTTA W PUSTKOWIE ŻURAWSKIM, KOLEJOWA, 55-040, PUSTKÓW ŻURAWSKI,16.859465,50.958878, 99.90000000000002, 996.0, 22.166666666666668,0.766666666666666,0.386666666666666, 2026-07-20 20:06:22
SZKOŁA PODSTAWOWA NR 1 IM. MARII KONOPNICKIEJ W ZESPOLE SZKÓŁ OGÓLNOKSZTAŁCĄCYCH NR 1 IM. MARII KONOPNICKIEJ W PRUSZCZU GDAŃSKIM, NIEMCEWICZA, 83-000, PRUSZCZ GDAŃSKI,18.650575,54.261512, 74.26666666666667, 1018.1666666666666, 18.466666666666665,1.266666666666666,0.6966666666666661, 2026-07-20 20:06:22
SZKOŁA PODSTAWOWA NR 2 IM. MIKOŁAJA KOPERNIKA W PRUSZCZU GDAŃSKIM, TYSIĄCLECIA, 83-000, PRUSZCZ GDAŃSKI,18.628278,54.260787, 72.83333333333333, 1010.1666666666666, 18.099999999999998,0.0,0.0, 2026-07-20 20:06:22
SZKOŁA PODSTAWOWA NR 3 IM. JANA MATEJKI W PRUSZCZU GDAŃSKIM, MATEJKI, 83-000, PRUSZCZ GDAŃSKI,18.636981,54.255547, 69.3, 1012.9333333333334, 20.3,1.066666666666666,0.529999999999999, 2026-07-20 20:06:22
SZKOŁA PODSTAWOWA NR 4 IM. IGNACEGO JANA PADEREWSKIEGO W PRUSZCZU GDAŃSKIM, KASPROWICZA, 83-000, PRUSZCZ GDAŃSKI,18.670231,54.263405, 73.96666666666665, 1012.1999999999999, 18.3,0.0,0.0, 2026-07-20 20:06:22
SZKOŁA PODSTAWOWA NR 13 W WIŚLE MAŁEJ, SOKOLA, 43-243, WISŁA MAŁA,18.793987,49.93368, 40.56666666666667, 994.0, 26.633333333333336,0.0,0.0, 2026-07-20 20:06:22
ZESPÓŁ SZKOLNO-PRZEDSZKOLNY W STUDZIENICACH, ŚW. JANA PAWŁA II 74, 43-215, STUDZIENICE,18.983576,50.016514, 42.26666666666667, 998.5, 23.333333333333332,0.133333333333333,0.076666666666666, 2026-07-20 20:06:22
SZKOŁA PODSTAWOWA IM. JANUSZA KORCZAKA W SUSZCU, SZKOLNA, 43-267, SUSZEC,18.79149,50.03719, 99.90000000000002, 1002.9, 24.733333333333334,2.5666666666666678,1.333333333333333, 2026-07-20 20:06:22
SZKOŁA PODSTAWOWA NR 11 W PORĘBIE, SZKOLNA, 43-200, PORĘBA,18.876488,49.984417, 42.9, 1003.1333333333333, 24.266666666666666,0.033333333333333,0.016666666666666, 2026-07-20 20:06:22
SZKOŁA PODSTAWOWA IM. MIKOŁAJA KOPERNIKA W WYSOCKU MAŁYM, KOŚCIELNA, 63-421, WYSOCKO MAŁE,17.84109,51.61033, 99.90000000000002, 995.0666666666666, 17.466666666666665,0.799999999999999,0.45, 2026-07-20 20:06:22
SZKOŁA PODSTAWOWA NR 3 IM. JULIANA TUWIMA W NOWEJ SOLI, BOTANICZNA, 67-100, NOWA SÓL,15.71186,51.82115, 66.36666666666666, 1009.8333333333334, 22.833333333333332,0.0,0.0, 2026-07-20 20:06:22
ZESPÓŁ SZKÓŁ W JANKOWIE PIERWSZYM, JANKÓW PIERWSZY, 62-814, JANKÓW PIERWSZY,17.987951,51.902107, 62.03333333333333, 997.0333333333333, 20.133333333333333,0.066666666666666,0.043333333333333, 2026-07-20 20:06:22
ZESPÓŁ SZKOLNO-PRZEDSZKOLNY W MESZNIE, MESZNO, 48-385, MESZNO,17.15378,50.43684, 80.83333333333333, 985.8000000000001, 21.366666666666664,0.333333333333333,0.163333333333333, 2026-07-20 20:06:22
SZKOŁA PODSTAWOWA IM. 16. PUŁKU UŁANÓW WIELKOPOLSKICH W GRUPIE, SZKOLNA, 86-134, GRUPA,18.643229,53.506348, 54.699999999999996, 1008.3333333333334, 22.5,0.5666666666666661,0.266666666666666, 2026-07-20 20:06:22
SZKOŁA PODSTAWOWA IM. ORŁA BIAŁEGO W KUROWICACH, SZKOLNA, 95-006, KUROWICE,19.6897942,51.6648927, 57.43333333333334, 991.5, 19.599999999999998,2.4,1.286666666666666, 2026-07-20 20:06:22
SZKOŁA PODSTAWOWA IM. POWSTAŃCÓW WIELKOPOLSKICH W BUDZYNIU, ROGOZIŃSKA, 64-840, BUDZYŃ,16.983885,52.8847, 79.33333333333333, 998.2999999999998, 17.400000000000002,1.166666666666666,0.6000000000000001, 2026-07-20 20:06:22
SZKOŁA PODSTAWOWA W SWORNEGACIACH, SZKOLNA, 89-608, SWORNEGACIE,17.503073,53.86227, 76.56666666666666, 998.0333333333333, 19.233333333333334,0.366666666666666,0.229999999999999, 2026-07-20 20:06:22
SZKOŁA PODSTAWOWA IM. ORŁA BIAŁEGO W RASZÓWCE, 1 MAJA, 59-307, RASZÓWKA,16.18346,51.30514, 99.46666666666665, 1001.1999999999999, 19.400000000000002,0.0,0.0, 2026-07-20 20:06:22
SZKOŁA PODSTAWOWA IM. TADEUSZA KOŚCIUSZKI W MUNINIE, 3-GO MAJA, 37-514, MUNINA,22.725977,49.997936, 56.5, 996.2999999999998, 6.8,68.4,42.61, 2026-07-20 20:06:22
SZKOŁA PODSTAWOWA IM. ALEKSANDRA FREDRY W SUROCHOWIE, SUROCHÓW, 37-500, SUROCHÓW,22.7635,50.02385, 35.333333333333336, 990.6, 24.366666666666664,1.0,0.58, 2026-07-20 20:06:22
SZKOŁA PODSTAWOWA IM. LOTNIKÓW ALIANCKICH W IŁOWEJ, PIASKOWA, 68-120, IŁOWA,15.20461,51.50227, 49.5, 993.7000000000002, 16.7,56.0,31.12, 2026-07-20 20:06:22
ZESPÓŁ SZKOLNO-PRZEDSZKOLNY W BOŻEJOWICACH, BOŻEJOWICE, 59-700, BOŻEJOWICE,15.541525,51.244331, 92.43333333333334, 995.3000000000001, 18.599999999999998,0.5,0.3, 2026-07-20 20:06:22
ZESPÓŁ SZKOLNO-PRZEDSZKOLNY W BRZEŹNIKU, BRZEŹNIK, 59-700, BRZEŹNIK,15.467881,51.243537, 5.0, 998.1, 18.3,0.066666666666666,0.04, 2026-07-20 20:06:22
SZKOŁA PODSTAWOWA W DĄBROWIE BOLESŁAWIECKIEJ, DĄBROWA BOLESŁAWIECKA, 59-700, DĄBROWA BOLESŁAWIECKA,15.57337,51.325929, 71.03333333333333, 997.0333333333333, 17.96666666666667,0.966666666666666,0.5566666666666661, 2026-07-20 20:06:22
ZESPÓŁ SZKOLNO-PRZEDSZKOLNY W OCICACH, OCICE, 59-730, OCICE,15.492642,51.201123, 99.90000000000002, 994.4, 15.299999999999999,3.199999999999999,1.843333333333333, 2026-07-20 20:06:22
ZESPÓŁ SZKOLNO-PRZEDSZKOLNY W TRZEBIENIU, LEŚNA, 59-700, TRZEBIEŃ,15.599295,51.390285, 43.9, 985.3666666666667, 21.5,1.366666666666666,0.736666666666666, 2026-07-20 20:06:22
ZESPÓŁ SZKOLNO-PRZEDSZKOLNY W ŻELISZOWIE, ŻELISZÓW, 59-700, ŻELISZÓW,15.636493,51.188462, 96.36666666666667, 997.0666666666666, 19.433333333333334,1.0,0.529999999999999, 2026-07-20 20:06:22
SZKOŁA PODSTAWOWA IM. MARII SKŁODOWSKIEJ-CURIE W KAWĘCZYNIE, KAWĘCZYN, 62-704, KAWĘCZYN,18.53126,51.90873, 91.88, 1014.65, 8.93,28.28,16.42, 2026-07-20 20:06:22
PUBLICZNA SZKOŁA PODSTAWOWA IM. MARII KONOPNICKIEJ W JORDANOWIE ŚLĄSKIM, WROCŁAWSKA, 55-065, JORDANÓW ŚLĄSKI,16.8656,50.8654, 68.3, 1003.2666666666668, 17.066666666666666,1.466666666666666,0.799999999999999, 2026-07-20 20:06:22
SZKOŁA PODSTAWOWA IM. JANA PAWŁA II W RUDNEJ, PIASKOWA, 59-305, RUDNA,16.26114,51.51127, 86.0, 1001.3666666666667, 18.933333333333334,1.833333333333333,1.066666666666666, 2026-07-20 20:06:22
SZKOŁA PODSTAWOWA IM. BOHATERÓW WESTERPLATTE W CHOBIENI, SZKOLNA, 59-305, CHOBIENIA,16.44566,51.54124, 76.0, 1004.1333333333333, 18.466666666666665,2.4,1.32, 2026-07-20 20:06:22
SZKOŁA PODSTAWOWA NR 3 IM. WŁADYSŁAWA BRONIEWSKIEGO W ŚWIEBODZICACH, ŚWIDNICKA, 58-160, ŚWIEBODZICE,16.322191,50.859905, 80.53333333333335, 986.3000000000001, 19.266666666666666,0.366666666666666,0.183333333333333, 2026-07-20 20:06:22
PUBLICZNA SZKOŁA PODSTAWOWA NR 5 IM. WŁADYSŁAWA BRONIEWSKIEGO W NOWEJ SOLI, WALKI MŁODYCH, 67-100, NOWA SÓL,15.72476,51.78292, 99.86666666666667, 1008.1, 20.133333333333333,0.833333333333333,0.53, 2026-07-20 20:06:22
ZESPÓŁ EDUKACYJNY W KOLSKU, PIASTOWSKA, 67-415, KOLSKO,15.961961,51.960693, 88.33999999999999, 1020.57, 9.94,37.83,22.350000000000005, 2026-07-20 20:06:22
SZKOŁA PODSTAWOWA NR 3 IM. MARII KONOPNICKIEJ W KOLE, TORUŃSKA, 62-600, KOŁO,18.63092,52.201656, 99.86666666666667, 1002.1, 21.233333333333334,1.266666666666666,0.6766666666666661, 2026-07-20 20:06:22
SZKOŁA PODSTAWOWA IM. JANA PAWŁA II W MIKORZYNIE, MIKORZYN, 63-600, MIKORZYN,18.026148,51.36473, 92.8, 992.0333333333333, 19.133333333333333,0.033333333333333,0.016666666666666, 2026-07-20 20:06:22
SZKOŁA PODSTAWOWA NR 1 IM. BOHATERÓW WESTERPLATTE W KĘPNIE, HENRYKA SIENKIEWICZA, 63-600, KĘPNO,17.987194,51.27619, 76.96666666666667, 1003.6333333333333, 20.8,0.233333333333333,0.139999999999999, 2026-07-20 20:06:22
SZKOŁA PODSTAWOWA IM. JANA PAWŁA II W LIPNICY WIELKIEJ, LIPNICA WIELKA, 33-323, LIPNICA WIELKA,20.86532,49.70755, 94.0, 985.0, 16.9,28.3,15.62, 2026-07-20 20:06:22
SZKOŁA PODSTAWOWA IM. PREZYDENTA GABRIELA NARUTOWICZA W CZĄSTKOWIE MAZOWIECKIM, CZĄSTKÓW MAZOWIECKI, 05-152, CZĄSTKÓW MAZOWIECKI,20.746943,52.39131, 75.3, 1005.5333333333333, 19.566666666666666,14.233333333333334,8.206666666666667, 2026-07-20 20:06:22
SZKOŁA PODSTAWOWA IM. PIERREA DE COUBERTINA W BUDACH SIENNICKICH, BUDY SIENNICKIE, 05-190, BUDY SIENNICKIE,20.787657,52.544962, 99.90000000000002, 992.9, 18.900000000000002,0.799999999999999,0.45, 2026-07-20 20:06:22
SZKOŁA PODSTAWOWA IM. JANA BRZECHWY W SZKLARACH GÓRNYCH, SZKLARY GÓRNE, 59-335, SZKLARY GÓRNE,16.08945,51.44225, 99.90000000000002, 1004.5333333333333, 20.0,0.1,0.053333333333333, 2026-07-20 20:06:22
SAMORZĄDOWA SZKOŁA PODSTAWOWA W GÓRNYCH GRĄDACH, GÓRNE GRĄDY, 62-310, GÓRNE GRĄDY,17.74012,52.11447, 99.90000000000002, 1010.2800000000001, 20.5,2.799999999999999,1.5599999999999992, 2026-07-20 20:06:22
SZKOŁA PODSTAWOWA IM. KRZYSZTOFA KAMILA BACZYŃSKIEGO W CIĄŻENIU, WOLNOŚCI, 62-404, CIĄŻEŃ,17.816093,52.21152, 99.90000000000002, 1000.2000000000002, 23.8,8.3,4.28, 2026-07-20 20:06:22
SZKOŁA PODSTAWOWA NR 1 IM. STRAJKU DZIECI KOŹMIŃSKICH 1906/1907 W KOŹMINIE WIELKOPOLSKIM, GLINKI, 63-720, KOŹMIN WIELKOPOLSKI,17.45651,51.82566, 88.5, 1007.1, 13.300000000000002,19.5,11.76, 2026-07-20 20:06:22
SZKOŁA PODSTAWOWA SPORTOWA NR 6 W EŁKU, SUWALSKA, 19-300, EŁK,22.365547,53.82862, 65.2, 999.7333333333332, 18.733333333333334,1.933333333333333,1.053333333333333, 2026-07-20 20:06:22
SZKOŁA PODSTAWOWA NR 6 IM. JANA PAWŁA II W STAROGARDZIE GDAŃSKIM, BP. DOMINIKA, 83-250, STAROGARD GDAŃSKI,18.491356,53.98333, 79.06666666666668, 1000.6, 19.7,0.0,0.0, 2026-07-20 20:06:22
PUBLICZNA SZKOLA PODSTAWOWA IM. BOHATEROW OŚWIĘCIMSKICH W RUDZICZCE, WOSZCZYCKA, 43-267, RUDZICZKA (SUSZEC),18.7549,50.03935, 48.23333333333333, 1008.6333333333333, 21.96666666666667,0.166666666666666,0.143333333333333, 2026-07-20 20:06:22
ZESPÓŁ SZKÓŁ TECHNICZNYCH W KOLE, KOLEJOWA, 62-600, KOŁO,18.62956,52.2088, 65.93333333333334, 1000.7666666666668, 18.933333333333334,0.1,0.06, 2026-07-20 20:06:22
PUBLICZNA SZKOŁA PODSTAWOWA NR 2 IM. KAZIMIERZA PUŁASKIEGO W WARCE, POLNA, 05-660, WARKA,21.188357,51.78638, 61.0, 995.9333333333334, 19.233333333333334,1.166666666666666,0.6233333333333331, 2026-07-20 20:06:22
SZKOŁA PODSTAWOWA NR 2 IM. STEFANA STARZYŃSKIEGO W NASIELSKU, KOŚCIUSZKI, 05-190, NASIELSK,20.801001,52.589717, 64.0, 995.1, 18.400000000000002,1.733333333333333,0.926666666666666, 2026-07-20 20:06:22
ZESPÓŁ SZKOLNO-PRZEDSZKOLNY W KAZUNIU NOWYM, GŁÓWNA, 05-152, KAZUŃ NOWY,20.68265,52.419853, 59.06666666666666, 1013.0, 21.066666666666666,1.333333333333333,0.7866666666666661, 2026-07-20 20:06:22
SZKOŁA PODSTAWOWA IM. MIKOŁAJA KOPERNIKA W CIEKSYNIE, MARSZ. JÓZEFA PIŁSUDSKIEGO, 05-192, CIEKSYN,20.666605,52.572132, 99.90000000000002, 999.6999999999999, 18.5,0.1,0.053333333333333, 2026-07-20 20:06:22
SZKOŁA PODSTAWOWA NR 5 IM MIKOŁAJA KOPERNIKA W CZECHOWICACH-DZIEDZICACH, KLASZTORNA, 43-502, CZECHOWICE-DZIEDZICE,19.003326,49.908154, 61.633333333333326, 1002.9, 18.733333333333334,4.466666666666667,2.716666666666667, 2026-07-20 20:06:22
SZKOŁA PODSTAWOWA IM. KS. JÓZEFA LONDZINA W ZABRZEGU, KAROLA PYTLA, 43-516, ZABRZEG,18.9401,49.91564, 82.8, 1020.2666666666668, 19.533333333333335,2.9666666666666672,1.88, 2026-07-20 20:06:22
GMINNE PRZEDSZKOLE W NOWEJ WSI, UL. GŁÓWNA, 05-806, NOWA WIEŚ,20.793608032839607,52.14079879793492, 74.89999999999999, 1009.3000000000001, 19.633333333333333,0.3,0.16, 2026-07-20 20:06:22
SZKOŁA PODSTAWOWA IM. JANA PAWŁA II W MICHAŁOWICACH, UL. SZKOLNA, 05-816, MICHAŁOWICE,20.8894743996203,52.16806240949327, 70.2, 1007.8000000000001, 18.7,16.933333333333334,9.62, 2026-07-20 20:06:22
SZKOŁA PODSTAWOWA IM. MARII DĄBROWSKIEJ W KOMOROWIE, UL. M. DĄBROWSKIEJ, 05-806, KOMORÓW,20.814969926602924,52.14696671968943, 74.46666666666667, 1007.7666666666668, 19.96666666666667,0.033333333333333,0.02, 2026-07-20 20:06:22
SZKOŁA PODSTAWOWA IM. MIKOŁAJA KOPERNIKA W NOWEJ WSI, UL. GŁÓWNA, 05-806, NOWA WIEŚ,20.80065871311049,52.134787344746286, 74.89999999999999, 1009.3000000000001, 19.633333333333333,0.3,0.16, 2026-07-20 20:06:22
GMINNE PRZEDSZKOLE W MICHAŁOWICACH, UL. SZKOLNA, 05-816, MICHAŁOWICE,20.8908240883606,52.16924425690457, 70.2, 1007.8000000000001, 18.7,16.933333333333334,9.62, 2026-07-20 20:06:22
ZESPÓŁ SZKOLNO-PRZEDSZKOLNY W SMOŁDZINIE, BOHATERÓW WARSZAWY, 76-214, SMOŁDZINO,17.217509899999996,54.66198055959346, 99.90000000000002, 1011.7666666666668, 14.799999999999999,0.3,0.183333333333333, 2026-07-20 20:06:22
ZESPÓŁ SZKOLNO- PRZEDSZKOLNY W0DOBRZYKOWICACH, UL. SUKCESU, 55-002, DOBRZYKOWICE,17.185415,51.092059, 99.10000000000001, 993.6, 17.5,2.6999999999999997,1.309999999999999, 2026-07-20 20:06:22
SZKOŁA PODSTAWOWA IM. PIASTÓW ŚLĄSKICH W CHRZĄSTAWIE WIELKIEJ, UL. WROCŁAWSKA, 55-003, CZERNICA,17.292154,51.092542, 71.2, 988.6, 31.0,5.966666666666666,3.42, 2026-07-20 20:06:22
ZESPÓŁ SZKOLNO-PRZEDSZKOLNY IM. PAPIEŻA JANA PAWŁA II W CZERNICY, UL. ŚW. BRATA ALBERTA ADAMA CHMIELOWSKIEGO0, 55-003, CZERNICA,17.248533,51.0473805, 86.2, 1006.7333333333332, 16.5,12.699999999999998,7.830000000000001, 2026-07-20 20:06:22
SZKOŁA PODSTAWOWA IM. JANUSZA KORCZAKA W RATOWICACH, UL. WROCŁAWSKA, 55-003, CZERNICA,17.26685,51.033897, 45.1, 989.0, 21.8,2.0,1.25, 2026-07-20 20:06:22
SZKOŁA PODSTAWOWA IM. BOLESŁAW KRZYWOUSTEGO W KAMIEŃCU WROCŁAWSKIM, UL. KOLEJOWA, 55-002, KAMIENIEC WROCŁAWSKI,17.173628,51.077638, 82.76666666666667, 991.6999999999999, 18.599999999999998,18.266666666666666,8.51, 2026-07-20 20:06:22
SZKOŁA PODSTAWOWA NR 4 IM. JANA MEJSTERA W SŁOMCZYNIE, WILANOWSKA, 05-520, KONSTANCIN-JEZIORNA,21.15329336951058,52.060898677662806, 64.13333333333334, 993.3333333333334, 20.5,3.733333333333333,2.073333333333333, 2026-07-20 20:06:22
PUBLICZNA SZKOŁA PODSTAWOWA W TOMASZOWIE, LEŚNA, 68-114, TOMASZÓW,15.404658513741197,51.622513710796575, 63.599999999999994, 995.5333333333333, 18.599999999999998,2.5666666666666678,1.323333333333333, 2026-07-20 20:06:22
SZKOŁA PODSTAWOWA NR 29 W LUBLINIE, WAJDELOTY, 20-604, LUBLIN,22.5237824136724,51.2433286093504, 39.0, 998.0, 24.2,3.0,2.0, 2026-07-20 20:06:22
SZKOŁA PODSTAWOWA W SZKODNEJ, , 39-126, SZKODNA,21.6475593266686,49.9841839576423, 38.04545454545455, 979.0454545454545, 24.445454545454538,2.345454545454545,2.345454545454545, 2026-07-20 20:06:22
SZKOŁA PODSTAWOWA IM. MARII KONOPNICKIEJ W MŁODOWIE, UL. SZKOLNA, 37-600, MŁODÓW,23.1625474248211,50.1612772043517, 28.608333333333334, 990.0, 25.791666666666668,3.166666666666666,3.166666666666666, 2026-07-20 20:06:22
SZKOŁA PODSTAWOWA W SIEDLISKACH, SIEDLISKA, 37-731, PRZEMYŚL,22.8836889838114,49.7739137681101, 36.0, 989.0, 24.974999999999998,2.833333333333333,2.166666666666666, 2026-07-20 20:06:22
SZKOŁA PODSTAWOWA NR 3 IM. JANA PAWŁA II W ROPCZYCACH, 3 MAJA, 39-100, ROPCZYCE,21.5832672438671,50.0389694490123, 35.15833333333333, 990.9166666666666, 23.066666666666666,3.083333333333333,3.0, 2026-07-20 20:06:22
SZKOŁA PODSTAWOWA NR 2 IM. BŁ. JANA PAWŁA II W LIBIĄŻU, PLAC ZWYCIĘSTWA, 32-590, LIBIĄŻ,19.3064540609702,50.0995764389139, 43.300000000000004, 983.3333333333334, 20.433333333333334,2.333333333333333,1.666666666666666, 2026-07-20 20:06:22
SZKOŁA PODSTAWOWA NR 2  IM. KAZIMIERZA BRODZIŃSKIEGO W BOCHNI, ORACKA, 32-700, BOCHNIA,20.4250867479996,49.9702658831946, 35.21666666666667, 990.0, 24.041666666666668,4.0,4.0, 2026-07-20 20:06:22
SZKOŁA PODSTAWOWA IM. KAZIMIERZA GÓRSKIEGO W ŁOZINIE, MILICKA, 55-095, ŁOZINA,17.180298682797538,51.23388117656271, 64.10000000000001, 998.1999999999999, 24.900000000000002,12.1,7.323333333333333, 2026-07-20 20:06:22
PRZEDSZKOLE W KIEŁCZOWIE, WROCŁAWSKA, 55-093, KIEŁCZÓW,17.19065006929958,51.1371047031024, 57.79999999999999, 999.9, 27.3,5.599999999999999,3.6, 2026-07-20 20:06:22
PRZEDSZKOLE W BLIZNEM JASIŃSKIEGO, UL. TADEUSZA KOŚCIUSZKI, 05-082, BLIZNE JASIŃSKIEGO,20.881159640505192,52.2438730196329, 65.7, 1008.8666666666667, 18.533333333333335,0.966666666666666,0.5566666666666661, 2026-07-20 20:06:22
ZESPÓŁ SZKÓŁ W PRUDNIKU, UL. DĄBROWSKIEGO, 48-200, PRUDNIK,17.571637628835184,50.32109542835716, 54.46666666666667, 989.2333333333332, 21.266666666666666,0.6000000000000001,0.333333333333333, 2026-07-20 20:06:22
PRZEDSZKOLE MIŚ USZATEK W OSTROROGU, UL. WRONIECKA, 64-560, OSTRORÓG,16.446531842328756,52.62862454862175, 99.90000000000002, 1002.9666666666667, 14.966666666666667,3.4666666666666672,2.3, 2026-07-20 20:06:22
SZKOŁA PODSTAWOWA NR 2 IM. GUSTAWA MORCINKA W TOSZKU, UL. WILKOWICKA, 44-180, TOSZEK,18.527405971163624,50.45410812894893, 61.633333333333326, 989.1333333333333, 24.566666666666666,1.466666666666666,0.736666666666666, 2026-07-20 20:06:22
SZKOŁA PODSTAWOWA IM. KAWALERÓW ORDERU UŚMIECHU W CZERSKU, UL. WARSZAWSKA, 05-530, CZERSK,21.22709127438472,51.96063591615556, 57.800000000000004, 999.8166666666666, 19.8,0.95,0.95, 2026-07-20 20:06:22
PUBLICZNA SZKOŁA PODSTAWOWA IM. JANA PAWŁA II W ROSZOWICKIM LESIE, UL. SZKOLNA, 47-253, ROSZOWICKI LAS,18.21990066,50.26168468, 35.833333333333336, 993.8499999999999, 23.05,1.733333333333333,1.408333333333333, 2026-07-20 20:06:22
SZKOŁA PODSTAWOWA IM. KS. JANA TWARDOWSKIEGO W RACIMIERZU, UL. NIEPODLEGŁOŚCI, 72-111, RACIMIERZ,14.65747308,53.7423708, 83.41666666666667, 1012.3916666666668, 16.2,1.033333333333333,0.866666666666666, 2026-07-20 20:06:22
I KATOLICKIE SPOŁECZNE LICEUM OGÓLNOKSZTAŁCACE IM.ŚW.BRATA ALBERTA CHMIELOWSKIEGO W PUŁAWACH, UL. STANISŁAWA EUSTACHIEWICZA, 24-100, PUŁAWY,21.95614207,51.41935824, 50.775, 997.5250000000001, 21.116666666666667,2.041666666666666,1.875, 2026-07-20 20:06:22
TECHNIKUM NR 4 W ZESPOLE SZKÓŁ TECHNICZNYCH IM.M. SKŁODOWSKIEJ-CURIE W PUŁAWACH, UL. WOJSKA POLSKIEGO, 24-100, PUŁAWY,21.97667461,51.41823622, 53.31666666666666, 997.0083333333333, 20.8,3.199999999999999,2.4, 2026-07-20 20:06:22
SZKOŁA PODSTAWOWA NR 2 IM. KRZYSZTOFA KAMILA BACZYŃSKIEGO W PUŁAWACH, AL. MAŁA, 24-100, PUŁAWY,21.96276919,51.41579363, 50.449999999999996, 996.8083333333334, 21.025000000000002,3.158333333333333,2.4, 2026-07-20 20:06:22
SZKOŁA PODSTAWOWA NR 4 IM. PAPIEŻA JANA PAWŁA II W ŁĘCZNEJ, UL. JAŚMINOWA, 21-010, ŁĘCZNA,22.88259013,51.29206273, 44.041666666666664, 993.5833333333334, 22.083333333333332,2.475,2.2416666666666663, 2026-07-20 20:06:22
SZKOŁA PODSTAWOWA IM.JOACHIMA LELEWELA W JAKUBOWICACH KONIŃSKICH, UL. SZKOLNA, 21-003, JAKUBOWICE KONIŃSKIE,22.52628594,51.31010447, 42.871428571428574, 991.1428571428571, 21.657142857142855,2.157142857142857,1.985714285714285, 2026-07-20 20:06:22
SZKOŁA PODSTAWOWA NR 6 IM. IRENY SENDLEROWEJ W CHEŁMIE, UL. POWSTAŃCÓW WARSZAWY, 22-100, CHEŁM,23.479142939944666,51.126339150220325, 37.199999999999996, 989.8833333333333, 25.40833333333333,2.858333333333333,2.258333333333333, 2026-07-20 20:06:22
SZKOŁA PODSTAWOWA NR 4 IM. KORNELA MAKUSZYŃSKIEGO W BIAŁEJ PODLASKIEJ, UL. STANISŁAWA MONIUSZKI, 21-500, BIAŁA PODLASKA,23.1240646,52.03658476, 38.75, 995.725, 22.983333333333334,2.408333333333333,1.883333333333333, 2026-07-20 20:06:22
SZKOŁA PODSTAWOWA IM.KSIĘDZA JANA TWARDOWSKIEGO W CZACHÓWKU, UL. GŁÓWNA, 05-530, CZACHÓWEK,21.0884246,51.96101922, 69.61666666666666, 1001.275, 19.383333333333333,1.675,1.408333333333333, 2026-07-20 20:06:22
LICEUM OGÓLNOKSZTAŁCĄCE W LIPSKU, UL. ZWOLEŃSKA, 27-300, LIPSKO,21.65162688,51.16209825, 43.309090909090905, 994.2363636363636, 22.954545454545453,2.645454545454545,2.054545454545454, 2026-07-20 20:06:22
TECHNIKUM NR 2 W GARWOLINIE, UL. ŻOŁNIERZY II ARMII WOJSKA POLSKIEGO, 08-400, GARWOLIN,21.5953052,51.89704263, 59.916666666666664, 998.775, 19.033333333333335,1.483333333333333,1.224999999999999, 2026-07-20 20:06:22
PUBLICZNA SZKOŁA PODSTAWOWA IM. O. STANISŁAWA PAPCZYŃSKIEGO W MARIAŃSKIM PORZECZU, , 08-470, MARIAŃSKIE PORZECZE,21.33261521,51.88402213, 59.72727272727273, 1001.7181818181817, 19.363636363636363,1.7000000000000002,1.436363636363636, 2026-07-20 20:06:22
SZKOŁA MUZYCZNA I ST. W GARWOLINIE, UL. JANA PAWŁA II, 08-400, GARWOLIN,21.61280145,51.89874672, 57.416666666666664, 997.975, 19.458333333333332,2.141666666666666,1.7249999999999992, 2026-07-20 20:06:22
SZKOŁA PODSTAWOWA NR 2 W KONSTANCINIE-JEZIORNEJ, UL. STEFANA ŻEROMSKIEGO, 05-510, KONSTANCIN-JEZIORNA,21.12317779,52.07946519, 60.64545454545455, 1001.6090909090909, 19.318181818181817,0.9909090909090912,0.854545454545454, 2026-07-20 20:06:22
TECHNIKUM NR 2 IM. EMILII PLATER W PIASECZNIE, UL. ALEJA BRZÓZ, 05-501, PIASECZNO,21.02070292,52.0540252, 72.84166666666667, 1002.0833333333334, 18.366666666666667,1.533333333333333,1.333333333333333, 2026-07-20 20:06:22
PUBLICZNA SZKOŁA PODSTAWOWA IM.KORNELA MAKUSZYŃSKIEGO W UGNIEWIE, UL. SZKOLNA, 07-300, UGNIEWO,21.91017286,52.8032487, 58.45, 998.25, 19.0,1.549999999999999,1.549999999999999, 2026-07-20 20:06:22
SZKOŁA PODSTAWOWA NR 2 IM. FRYDERYKA CHOPINA W MALKINI GÓRNEJ, UL. LEŚNA, 07-320, MAŁKINIA GÓRNA,22.05928062,52.6945031, 53.375, 1000.4833333333332, 21.224999999999998,1.125,1.125, 2026-07-20 20:06:22
SZKOŁA PODSTAWOWA IM. BŁOGOSŁAWIONEGO OJCA STANISŁAWA PAPCZYŃSKIEGO W KĄTACH, UL. PUŁAWSKA, 05-532, KĄTY,21.17263735,52.00208981, 57.56666666666666, 999.775, 19.241666666666667,1.6583333333333332,1.491666666666666, 2026-07-20 20:06:22
TECHNIKUM GASTRONOMICZNE W GDYNI, UL. MORSKA, 81-222, GDYNIA,18.51581066,54.52508818, 80.63333333333334, 1006.8666666666667, 17.608333333333334,3.541666666666666,3.166666666666666, 2026-07-20 20:06:22
SZKOŁA PODSTAWOWA W ZŁOTOKŁOSIE, UL. TRAUGUTTA, 05-504, ZŁOTOKŁOS,20.90784407,52.00962311, 72.16666666666667, 1000.375, 18.575,1.8916666666666664,1.608333333333333, 2026-07-20 20:06:22
SZKOŁA PODSTAWOWA IM. FELIKSA KAPACKIEGO W CENDROWICACH, UL. SZKOLNA, 05-530, CENDROWICE,21.13239127,51.96755856, 53.041666666666664, 997.8666666666667, 21.349999999999998,1.55,1.325, 2026-07-20 20:06:22
SZKOŁA PODSTAWOWA W BIAŁUSNYM LASKU, , 07-430, BIAŁUSNY LASEK,21.30430342,53.35698702, 55.65, 996.5749999999999, 20.258333333333333,1.491666666666666,1.283333333333333, 2026-07-20 20:06:22
SZKOŁA PODSTAWOWA IM. KS. JANA TWARDOWSKIEGO W GLINIE, , 07-320, GLINA,21.95984362,52.6962338, 50.46666666666667, 998.4916666666667, 20.966666666666665,1.025,1.025, 2026-07-20 20:06:22
PUBLICZNE TECHNIKUM LEŚNE ZESPOŁU SZKÓŁ W TUŁOWICACH, UL. ZAMKOWA, 49-130, TUŁOWICE,17.65698382,50.59142765, 50.166666666666664, 996.9250000000001, 20.675,2.55,2.199999999999999, 2026-07-20 20:06:22
SZKOŁA PODSTAWOWA NR 1 IM.KAROLA MIARKI W RYDUŁTOWACH, UL. ŚW. MAKSYMILIANA KOLBE, 44-280, RYDUŁTOWY,18.41959735,50.05843382, 42.0875, 984.4625, 22.825,1.05,0.9375, 2026-07-20 20:06:22
TECHNIKUM W PSZOWIE, UL. ROMUALDA TRAUGUTTA, 44-370, PSZÓW,18.40378202,50.0419266, 36.30833333333333, 978.6750000000001, 23.275000000000002,2.658333333333333,2.291666666666666, 2026-07-20 20:06:22
SZKOŁA PODSTAWOWA ZESPOŁU SZKÓŁ IM. BOLESŁAWA CHROBREGO W NIEMODLINIE, UL. OPOLSKA , 49-100, NIEMODLIN,17.63285173,50.64185007, 56.24166666666667, 997.8083333333334, 20.233333333333334,1.541666666666666,1.375, 2026-07-20 20:06:22
TECHNIKUM W RYDUŁTOWACH, UL. OBYWATELSKA, 44-280, RYDUŁTOWY,18.42658537,50.07171957, 40.55833333333333, 980.0166666666668, 22.583333333333332,2.625,2.275, 2026-07-20 20:06:22
SZKOŁA PODSTAWOWA IM.KARDYNAŁA STEFANA WYSZYŃSKIEGO W TELATYNIE, UL. KARDYNAŁA STEFANA WYSZYŃSKIEGO, 22-652, TELATYN,23.8446095,50.52250671, 45.23333333333333, 987.2666666666668, 22.7,2.791666666666666,2.408333333333333, 2026-07-20 20:06:22
TECHNIKUM NR 1 W ŚWIDNIKU, UL. SZKOLNA, 21-045, ŚWIDNIK,22.69752657,51.22672919, 38.68333333333333, 988.2666666666668, 22.40833333333333,2.2416666666666663,1.95, 2026-07-20 20:06:22
SZKOŁA PODSTAWOWA W OŁDAKACH, , 07-411, OŁDAKI,21.692978,53.095518, 58.1, 1000.6416666666668, 20.991666666666667,0.216666666666666,0.208333333333333, 2026-07-20 20:06:22
SZKOŁA PODSTAWOWA IM.J.WYBICKIEGO W POLNICY, , 77-300, POLNICA,17.40057712,53.75198216, 86.02499999999999, 994.0166666666668, 15.975,8.891666666666667,7.991666666666667, 2026-07-20 20:06:22
SZKOŁA PODSTAWOWA W RAJKOWACH W ZESPOLE KSZTAŁCENIA I WYCHOWANIA W RAJKOWACH, UL. JESIONOWA, 83-130, RAJKOWY,18.7092112,53.9610738, 75.225, 1001.6500000000001, 17.883333333333333,0.958333333333333,0.8583333333333331, 2026-07-20 20:06:22
LICEUM OGÓLNOKSZTAŁCĄCE W REDZIE, UL. ŁĄKOWA, 84-240, REDA,18.3577379,54.60185, 81.71428571428571, 1008.0285714285714, 16.95714285714286,4.814285714285715,4.357142857142857, 2026-07-20 20:06:22
SZKOŁA PODSTAWOWA IM. MARYNARKI WOJENNEJ RP W OSTASZEWIE, UL. KOŚCIUSZKI, 82-112, OSTASZEWO,18.9507202,54.2131383, 76.17142857142858, 1008.3857142857142, 18.37142857142857,2.657142857142857,2.242857142857143, 2026-07-20 20:06:22
TECHNIKUM NR 2 W BYTOWIE, UL. HIERONIMA DERDOWSKIEGO, 77-100, BYTÓW,17.48812443,54.16585829, 81.61666666666666, 994.1833333333334, 16.675,2.383333333333333,2.191666666666667, 2026-07-20 20:06:22
SZKOŁA PODSTAWOWA W ZIELINIE, UL. PRUDNICKA, 47-370, ZIELINA,17.7989291,50.4408404, 42.225, 993.2583333333333, 22.0,1.566666666666666,1.3083333333333331, 2026-07-20 20:06:22
SZKOŁA PODSTAWOWA STOWARZYSZENIA ZŁOTY POTOK W ŁĄCE PRUDNICKIEJ, UL. GŁUCHOŁASKA, 48-200, ŁĄKA PRUDNICKA,17.528406,50.313494, 35.9, 982.1300000000001, 23.22,1.81,1.59, 2026-07-20 20:06:22
SZKOŁA PODSTAWOWA W ŁUBNIE, , 77-140, ŁUBNO,17.22653098,54.15365707, 85.53333333333335, 993.2666666666668, 15.108333333333334,2.108333333333333,1.741666666666666, 2026-07-20 20:06:22
PUBLICZNA SZKOŁA PODSTAWOWA IM. EDMUNDA DYWELSKIEGO W ZBLEWIE, UL. KASZTELAŃSKA, 83-210, BYTONIA,18.28590547,53.9203933, 80.58333333333333, 993.4083333333333, 16.816666666666666,2.05,1.875, 2026-07-20 20:06:22
LICEUM OGÓLNOKSZTAŁCĄCE W CZŁUCHOWIE, UL. JANUSZA KUSOCIŃSKIEGO, 77-300, CZŁUCHÓW,17.36617595,53.66292375, 83.375, 990.9499999999999, 16.95,1.3916666666666662,1.1833333333333331, 2026-07-20 20:06:22
SZKOŁA PODSTAWOWA NR 3 IM. MARII KONOPNICKIEJ W BIAŁEJ PODLASKIEJ, UL. SPORTOWA, 21-500, BIAŁA PODLASKA,23.119378,52.022177, 44.19, 995.01, 22.630000000000003,1.619999999999999,1.5, 2026-07-20 20:06:22
PUBLICZNA SZKOŁA PODSTAWOWA IM. KSIĘDZA JANA TWARDOWSKIEGO W JANUSZKOWICACH, UL. LESIAŃSKA, 47-330, JANUSZKOWICE,18.1356599,50.3898439, 39.93333333333333, 994.6833333333334, 22.599999999999998,1.316666666666666,1.116666666666666, 2026-07-20 20:06:22
SZKOŁA PODSTAWOWA IM. MARII SKŁODOWSKIEJ-CURIE W ALWERNI, UL. MARII SKŁODOWSKIEJ-CURIE, 32-566, ALWERNIA,19.542471211821844,50.06505227372774, 41.18333333333333, 978.9499999999999, 22.025000000000002,2.9,2.4666666666666672, 2026-07-20 20:06:22
SZKOŁA PODSTAWOWA IM. MIKOŁAJA KOPERNIKA W BALINIE, UL. JAWORZNICKA, 32-500, BALIN,19.373681797572548,50.17107310274746, 56.416666666666664, 978.3916666666665, 20.691666666666666,3.391666666666667,2.958333333333333, 2026-07-20 20:06:22
TECHNIKUM NR 2 IM. BOHATERÓW WESTERPLATTE W KLUCZBORKU, UL. BYCZYŃSKA, 46-200, KLUCZBORK,18.20597356,50.97669665, 51.56666666666666, 993.5833333333334, 20.916666666666668,1.4333333333333331,1.4333333333333331, 2026-07-20 20:06:22
PUBLICZNA SZKOŁA PODSTAWOWA IM.HALINY SEMENOWICZ W MOSZCZANCE, , 48-200, MOSZCZANKA,17.483901,50.295686, 43.90833333333333, 979.525, 21.150000000000002,1.083333333333333,1.075, 2026-07-20 20:06:22
BRANŻOWA SZKOŁA I STOPNIA W ŁASKARZEWIE, UL. KOLEJOWA, 08-450, ŁASKARZEW,21.599958,51.788404, 59.84166666666667, 997.0749999999999, 19.283333333333335,2.05,1.6583333333333332, 2026-07-20 20:06:22
SZKOŁA PODSTAWOWA IM.ŻWIRKI I WIGURY W RADOCZY, UL. DĘBOWA, 34-100, RADOCZA,19.4703966,49.9176909, 44.199999999999996, 982.0545454545455, 22.345454545454547,2.7363636363636363,2.181818181818181, 2026-07-20 20:06:22
SZKOŁA PODSTAWOWA NR 5 IM. MARII KONOPNICKIEJ W CHEŁMIE, UL. I PUŁKU SZWOLEŻERÓW, 22-100, CHEŁM,23.481093,51.134591, 40.94166666666667, 990.2083333333334, 22.95,2.591666666666667,2.125, 2026-07-20 20:06:22
LICEUM OGÓLNOKSZTAŁCĄCE IM. KS. J. ST. PASIERBA W PELPLINIE, UL. SAMBORA, 83-130, PELPLIN,18.6979422,53.9283135, 76.60833333333333, 1003.6166666666667, 17.775000000000002,2.4666666666666672,2.225, 2026-07-20 20:06:22
TECHNIKUM W GŁOGÓWKU, UL. POWSTAŃCÓW, 48-250, GŁOGÓWEK,17.86435,50.35349, 36.49166666666667, 990.725, 22.900000000000002,1.358333333333333,1.066666666666666, 2026-07-20 20:06:22
SZKOŁA PODSTAWOWA NR 2 IM. KS. STANISŁAWA STASZICA W CHEŁMIE, UL. OBŁOŃSKA, 22-100, CHEŁM,23.47575683,51.13815167, 40.56363636363636, 991.5, 22.845454545454547,3.290909090909091,2.8, 2026-07-20 20:06:22
SZKOŁA PODSTAWOWA NR 8 IM. BOLESŁAWA ZYGMUNTA WIRSKIEGO W CHEŁMIE, UL. POŁANIECKA, 22-100, CHEŁM,23.477306,51.123224, 38.55, 989.8083333333333, 23.316666666666666,3.35,2.791666666666666, 2026-07-20 20:06:22
SZKOŁA PODSTAWOWA NR 10 Z ODDZIAŁAMI INTEGRACYJNYMI IM. WALERIANA ŁUKASIŃSKIEGO W ZAMOŚCIU, UL. PEOWIAKÓW, 22-400, ZAMOŚĆ,23.25695961789249,50.72103172968299, 33.84166666666667, 988.025, 26.683333333333334,2.875,2.433333333333333, 2026-07-20 20:06:22
ZESPÓŁ SZKÓŁ GMINNYCH IM. HENRYKA SIENKIEWICZA W BOGUCICACH SZKOŁA PODSTAWOWA W BOGUCICACH, , 32-711, BOGUCICE,20.498337,50.057389, 38.425, 994.125, 25.608333333333334,1.825,1.533333333333333, 2026-07-20 20:06:22
PUBLICZNA SZKOŁA PODSTAWOWA W NIEDZIELISKACH, , 32-820, NIEDZIELISKA,20.632091271164818,50.09115399071606, 42.108333333333334, 992.3416666666667, 23.45,2.333333333333333,2.074999999999999, 2026-07-20 20:06:22
TECHNIKUM W ZESPOLE SZKÓŁ AGROBIZNESU IM.MACIEJA RATAJA W KLEMENTOWICACH, , 24-170, KLEMENTOWICE,22.113069,51.362926, 63.73333333333333, 993.9583333333334, 19.775000000000002,0.916666666666666,0.408333333333333, 2026-07-20 20:06:22
PUBLICZNA SZKOŁA PODSTAWOWA IM. KAZIMIERZA RASŁAWSKIEGO W BORZECHOWIE , , 24-224, BORZECHÓW-KOLONIA,22.2853918,51.09246552, 39.925, 989.3499999999999, 22.625,2.475,2.0375, 2026-07-20 20:06:22
SZKOŁA PODSTAWOWA NR 117 IM. KRAKOWSKIEJ KONGREGACJI KUPIECKIEJ W KRAKOWIE, UL. JANA KURCZABA, 30-868, KRAKÓW-PODGÓRZE,20.00687205767037,50.01317838097981, 40.11666666666667, 989.5916666666667, 22.608333333333334,3.074999999999999,2.75, 2026-07-20 20:06:22
VI LICEUM OGÓLNOKSZTAŁCĄCE IM. HUGONA KOŁŁĄTAJA W LUBLINIE, UL. ADAMA MICKIEWICZA, 20-466, LUBLIN,22.577994,51.216809, 45.445454545454545, 992.9090909090909, 22.318181818181817,2.709090909090909,2.509090909090909, 2026-07-20 20:06:22
SZKOŁA PODSTAWOWA W ORLE, , 07-320, ORŁO,21.989508,52.732095, 50.36666666666667, 998.3583333333332, 19.783333333333335,1.375,1.116666666666666, 2026-07-20 20:06:22
SZKOŁA PODSTAWOWA IM. WINCENTEGO WITOSA W GROMNIKU, UL. WITOSA, 33-180, GROMNIK,20.959304,49.840276, 32.800000000000004, 984.7416666666667, 26.666666666666668,2.5666666666666678,2.266666666666666, 2026-07-20 20:06:22
AKADEMIA NAJMŁODSZYCH KRZYSZTOF GOŁAŚ NIEPUBLICZNA SZKOŁA PODSTAWOWA W KADZIDLE, UL. BRZOZOWA, 07-420, KADZIDŁO,21.450353,53.231522, 64.375, 997.3000000000001, 19.466666666666665,1.7833333333333332,1.583333333333333, 2026-07-20 20:06:22
SZKOŁA PODSTAWOWA IM. ŚW. STANISŁAWA KOSTKI W AMELINIE, , 06-212, AMELIN,20.92818124,52.98166409, 63.725, 997.9166666666666, 18.75,1.583333333333333,1.383333333333333, 2026-07-20 20:06:22
SZKOŁA PODSTAWOWA SPECJALNA NR 44 IM. JANA BRZECHWY W KRAKOWIE, UL. ZAKĄTEK, 30-076, KRAKÓW,19.916426,50.076299, 36.54545454545455, 989.1909090909091, 23.563636363636363,3.163636363636363,2.636363636363636, 2026-07-20 20:06:22
SZKOŁA PODSTAWOWA NR 1 IM. ŚW. JADWIGI KRÓLOWEJ W PODWILKU, , 34-722, PODWILK,19.7397286,49.547978, 51.09166666666667, 936.9833333333332, 20.05,2.558333333333333,2.441666666666667, 2026-07-20 20:06:22
LICEUM OGÓLNOKSZTAŁCĄCE KADETÓW RZECZYPOSPOLITEJ POLSKIEJ W LIPINACH, , 26-425, LIPINY,20.511418,51.54591, 62.96666666666667, 996.2166666666667, 19.8,3.308333333333333,2.708333333333333, 2026-07-20 20:06:22
SZKOŁA PODSTAWOWA NR 1 W BIAŁYM BORZE, UL. DWORCOWA, 78-425, BIAŁY BÓR,16.84535152,53.89895274, 84.15833333333333, 988.9416666666666, 15.725,1.4333333333333331,1.225, 2026-07-20 20:06:22
SZKOŁA PODSTAWOWA IM.NOBLISTÓW POLSKICH W SIEMYŚLU, UL. SZKOLNA, 78-123, SIEMYŚL,15.53351351,54.02888072, 86.34166666666665, 1008.2416666666667, 15.925000000000002,9.35,8.125, 2026-07-20 20:06:22
SZKOŁA PODSTAWOWA W DASZEWIE, , 78-230, DASZEWO,15.881284,54.081214, 83.425, 1007.5500000000001, 15.941666666666668,0.975,0.875, 2026-07-20 20:06:22
SZKOŁA PODSTAWOWA NR 1 IM. ADAMA MICKIEWICZA W POŁCZYNIE-ZDROJU, UL. GRUNWALDZKA, 78-320, POŁCZYN-ZDRÓJ,16.095199000000004,53.76789333949964, 80.54166666666667, 1000.9499999999999, 16.358333333333334,2.925,2.766666666666667, 2026-07-20 20:06:22
SZKOŁA PODSTAWOWA W DARGINI, , 76-020, DARGIŃ,16.3943428,54.0157172, 79.725, 999.0, 16.849999999999998,1.3,1.025, 2026-07-20 20:06:22
ARCHIDIECEZJALNA SZKOŁA MUZYCZNA II ST. IM. KS. KARD. FRANCISZKA MACHARSKIEGO W KRAKOWIE, UL. PROSTA, 30-814, KRAKÓW-PODGÓRZE,19.988467,50.020869, 26.689999999999998, 988.2, 28.380000000000003,2.91,2.42, 2026-07-20 20:06:22
SZKOŁA PODSTAWOWA Z ODDZIAŁAMI INTEGRACYJNYMI NR 30 IM. KAZIMIERZA PUŁASKIEGO W KRAKOWIE, UL. KONFEDERACKA, 30-306, KRAKÓW-PODGÓRZE,19.927626,50.048977, 31.933333333333334, 990.0749999999999, 26.116666666666664,3.2416666666666663,2.6166666666666663, 2026-07-20 20:06:22
SPOŁECZNA SZKOŁA PODSTAWOWA NR 2 SPOŁECZNEGO TOWARZYSTWA OŚWIATOWEGO W TARNOWIE, UL. JANA MATEJKI, 33-100, TARNÓW,20.98127883,50.01473267, 38.516666666666666, 1004.1583333333333, 23.883333333333336,4.649999999999999,3.983333333333333, 2026-07-20 20:06:22
XII LICEUM OGÓLNOKSZTAŁCĄCE W ZESPOLE SZKÓŁ MECHANICZNO-ELEKTRYCZNYCH W TARNOWIE, UL. JÓZEFA SZUJSKIEGO, 33-100, TARNÓW,20.975575,50.015268, 41.67, 990.64, 23.080000000000002,5.75,4.979999999999999, 2026-07-20 20:06:22
TECHNIKUM NR 1 W ZESPOLE SZKÓŁ TECHNICZNYCH IM.IGNACEGO MOŚCICKIEGO W TARNOWIE, UL. EUGENIUSZA KWIATKOWSKIEGO, 33-101, TARNÓW,20.9172948,50.01387361, 40.291666666666664, 990.9250000000001, 23.78333333333333,3.5,3.066666666666666, 2026-07-20 20:06:22
SZKOŁA PODSTAWOWA W ZESPOLE SZKÓŁ IM.MĘCZENNIKÓW MARSZU ŚMIERCI KL STUTTHOF W GARCZEGORZU, , 84-351, GARCZEGORZE,17.72784195,54.59420501, 81.875, 1002.025, 16.683333333333334,3.933333333333333,3.541666666666666, 2026-07-20 20:06:22
PUBLICZNA SZKOŁA PODSTAWOWA NR 1 IM.BOHATERÓW WESTERPLATTE W PRUDNIKU, UL. PODGÓRNA, 48-200, PRUDNIK,17.595989,50.32052, 46.40833333333333, 985.0, 21.15,0.833333333333333,0.6000000000000001, 2026-07-20 20:06:22
ZESPÓŁ SZKÓŁ GMINNYCH IM. MIKOŁAJA KOPERNIKA W GAWŁOWIE SZKOŁA PODSTAWOWA Z ODDZIAŁAMI SPORTOWYMI W GAWŁOWIE, , 32-711, GAWŁÓW,20.463199,50.026547, 37.525, 992.1583333333333, 24.016666666666666,1.8,1.5999999999999992, 2026-07-20 20:06:22
SZKOŁA PODSTAWOWA SPECJALNA W GRÓJCU, UL. POLNA, 05-600, GRÓJEC,20.863021,51.862928, 65.3, 995.0749999999999, 18.775000000000002,1.866666666666666,1.5166666666666662, 2026-07-20 20:06:22
PUBLICZNA SZKOŁA PODSTAWOWA W SUCHEJ, UL. SZLACHECKA, 26-800, SUCHA,20.953664,51.617246, 63.775, 998.5166666666668, 18.858333333333334,1.466666666666666,1.341666666666666, 2026-07-20 20:06:22
TECHNIKUM W WARCE, UL. OBWODOWA, 05-660, WARKA,21.182782,51.79066, 66.08333333333333, 999.3083333333333, 18.416666666666668,1.141666666666666,0.958333333333333, 2026-07-20 20:06:22
SZKOŁA PODSTAWOWA NR 4 W RYDUŁTOWACH, UL. STRZELCÓW BYTOMSKICH, 44-280, RYDUŁTOWY,18.417777,50.06633209, 42.53333333333333, 981.7916666666666, 23.266666666666666,1.525,1.266666666666666, 2026-07-20 20:06:22
PUBLICZNA SZKOŁA PODSTAWOWA NR 1 IM. BOLESŁAWA KRZYWOUSTEGO W KOŻUCHOWIE, UL. CHOPINA, 67-120, KOŻUCHÓW,15.5962077,51.7425702, 63.13333333333333, 1001.6833333333334, 20.05,1.866666666666666,1.583333333333333, 2026-07-20 20:06:22
PUBLICZNA SZKOŁA PODSTAWOWA NR 1 IM. KOMISJI EDUKACJI NARODOWEJ W BIAŁOBRZEGACH, UL. RZEMIEŚLNICZA, 26-800, BIAŁOBRZEGI,20.9533613,51.64505952, 71.34166666666667, 1002.9166666666666, 17.325,1.525,1.258333333333333, 2026-07-20 20:06:22
TECHNIKUM IM. ZESŁAŃCÓW SYBIRU W BRODNICY, UL. KARBOWSKA, 87-300, BRODNICA,19.4065091,53.2579165, 63.01666666666667, 1001.7833333333333, 19.8,1.55,1.333333333333333, 2026-07-20 20:06:22
PUBLICZNA SZKOŁA PODSTAWOWA W GOSZCZYNIE, UL. ARMII KRAJOWEJ, 05-610, GOSZCZYN,20.85589777,51.73236675, 65.575, 995.0333333333333, 18.866666666666667,1.5750000000000002,1.283333333333333, 2026-07-20 20:06:22
LICEUM OGÓLNOKSZTAŁCĄCE W TARCZYNIE, UL. KS. CZESŁAWA OSZKIELA, 05-555, TARCZYN,20.83477,51.98106, 70.73333333333333, 996.875, 18.908333333333335,4.3,3.8, 2026-07-20 20:06:22
SZKOŁA PODSTAWOWA IM. BŁOGOSŁAWIONEGO KS. JERZEGO POPIEŁUSZKI W NIECZAJNIE GÓRNEJ, , 33-205, NIECZAJNA GÓRNA,21.052364,50.180347, 33.1, 991.4166666666666, 25.458333333333332,3.108333333333333,2.6, 2026-07-20 20:06:22
SZKOŁA PODSTAWOWA NR 86 IM. POWSTAŃCÓW ŚLĄSKICH W KRAKOWIE, OS. OSIEDLE JAGIELLOŃSKIE, 31-833, KRAKÓW-NOWA HUTA,20.027067,50.084753, 36.61666666666667, 991.9833333333332, 25.025000000000002,2.6916666666666678,2.433333333333333, 2026-07-20 20:06:22
SZKOŁA PODSTAWOWA IM. POWSTAŃCÓW STYCZNIOWYCH W DALIKOWIE, UL. ŁĘCZYCKA, 99-205, DALIKÓW,19.10104737,51.8835744, 68.75833333333334, 995.5749999999999, 18.908333333333335,1.716666666666666,1.4333333333333331, 2026-07-20 20:06:22
BRANŻOWA SZKOŁA I STOPNIA SPECJALNA W SKAWINIE W SPECJALNYM OŚRODKU SZKOLNO-WYCHOWAWCZYM IM. POCZTY POLSKIEJ W SKAWINIE, UL. ŻWIRKI I WIGURY, 32-050, SKAWINA,19.825058,49.973327, 32.59090909090909, 989.6181818181819, 26.563636363636363,3.727272727272727,3.163636363636363, 2026-07-20 20:06:22
PUBLICZNA SZKOŁA PODSTAWOWA W JAWORZU GÓRNYM, , 39-223, JAWORZE GÓRNE,21.354123,49.94549, 37.4, 986.7833333333333, 27.616666666666664,2.958333333333333,2.525, 2026-07-20 20:06:22
SZKOŁA PODSTAWOWA NR 234 IM. JULIANA TUWIMA W WARSZAWIE, UL. ESPERANTO, 01-049, WARSZAWA,20.980951,52.244004, 64.43333333333334, 999.2083333333334, 18.675,0.958333333333333,0.958333333333333, 2026-07-20 20:06:22
XI LICEUM OGÓLNOKSZTAŁCĄCE IM. MIKOŁAJA REJA W WARSZAWIE, PL. PLAC STANISŁAWA MAŁACHOWSKIEGO, 00-063, WARSZAWA,21.01075177068874,52.238891020514885, 59.24166666666667, 999.1916666666666, 19.175,1.25,1.208333333333333, 2026-07-20 20:06:22
SZKOŁA PODSTAWOWA IM. ŚW. JADWIGI KRÓLOWEJ POLSKI W LISIEJ GÓRZE, UL. SZKOLNA, 33-140, LISIA GÓRA,21.04434023989556,50.08140809669519, 32.0, 984.9, 26.866666666666664,2.933333333333333,2.6999999999999997, 2026-07-20 20:06:22
SZKOŁA PODSTAWOWA NR 89 IM. TADEUSZA MAZOWIECKIEGO W GDAŃSKU, UL. SZYPRÓW, 80-335, GDAŃSK,18.5764229,54.422398, 86.10833333333333, 1009.3000000000001, 16.341666666666665,1.7416666666666671,1.325, 2026-07-20 20:06:22
SZKOŁA PODSTAWOWA NR 82 IM. PROF. JANA CZOCHRALSKIEGO W GDAŃSKU, UL. RADAROWA, 80-298, GDAŃSK,18.4834117,54.3881906, 83.44166666666666, 991.2416666666667, 16.541666666666668,2.15,1.875, 2026-07-20 20:06:22
SZKOŁA TECHNICZNA BYDGOSKIEGO ZAKŁADU DOSKONALENIA ZAWODOWEGO W CHOJNICACH, UL. KOŚCIERSKA, 89-600, CHOJNICE,17.57105185,53.69729052, 82.13333333333334, 989.1166666666667, 16.758333333333333,1.966666666666666,1.775, 2026-07-20 20:06:22
PRYWATNA SZKOŁA PODSTAWOWA NAJA SZKOŁA W WEJHEROWIE, UL. PRZEMYSŁOWA, 84-200, WEJHEROWO,18.21802095,54.61295281, 89.26666666666667, 1005.3833333333333, 16.60833333333333,4.25,3.833333333333333, 2026-07-20 20:06:22
ZESPÓŁ PLACÓWEK OŚWIATOWYCH SZKOŁA PODSTAWOWA IM. JÓZEFA BEMA W WOLI FILIPOWSKIEJ, UL. SZKOLNA, 32-065, WOLA FILIPOWSKA,19.5849512,50.1324622, 43.35833333333333, 982.4499999999999, 24.483333333333334,0.0,0.0, 2026-07-20 20:06:22
SZKOŁA PODSTAWOWA W NOWYCH ŁUBKACH, , 09-454, NOWE ŁUBKI,20.0336032,52.5782308, 67.49166666666666, 1004.7166666666667, 18.358333333333334,2.033333333333333,1.708333333333333, 2026-07-20 20:06:22
SZKOŁA PODSTAWOWA NR 36 IM. JULIANA TUWIMA W ZABRZU, PL. PLAC WARSZAWSKI, 41-800, ZABRZE,18.78893235,50.30422484, 43.40833333333333, 984.2916666666666, 22.21666666666667,1.7666666666666662,1.375, 2026-07-20 20:06:22
III LICEUM OGÓLNOKSZTAŁCĄCE Z ODDZIAŁAMI DWUJĘZYCZNYMI W ZABRZU, UL. HENRYKA SIENKIEWICZA, 41-800, ZABRZE,18.7957049,50.29655227, 37.05833333333333, 982.1083333333335, 24.974999999999998,1.775,1.4, 2026-07-20 20:06:22
SZKOŁA PODSTAWOWA NR 48 W ZABRZU W CENTRUM KSZTAŁCENIA OGÓLNEGO I ZAWODOWEGO W ZABRZU, UL. ZWROTNICZA, 41-807, ZABRZE,18.76624,50.343641, 39.46363636363637, 984.9909090909091, 24.227272727272727,2.154545454545454,1.627272727272727, 2026-07-20 20:06:22
BRANŻOWA SZKOŁA I STOPNIA NR 6 W ZABRZU W ZABRZAŃSKIM CENTRUM KSZTAŁCENIA OGÓLNEGO I ZAWODOWEGO W ZABRZU, UL. MARSZAŁKA JÓZEFA PIŁSUDSKIEGO, 41-800, ZABRZE,18.76296398,50.29894695, 44.98333333333333, 986.0666666666666, 22.425,2.808333333333333,2.183333333333333, 2026-07-20 20:06:22
SZKOŁA PODSTAWOWA NR 29 W ZABRZU, UL. BUDOWLANA, 41-808, ZABRZE,18.791604,50.364381, 42.708333333333336, 982.2583333333333, 24.09166666666667,2.125,1.6833333333333331, 2026-07-20 20:06:22
IV LICEUM OGÓLNOKSZTAŁCĄCE IM. MIKOŁAJA REJA W ZABRZU, UL. GEN. WŁADYSŁAWA ANDERSA, 41-808, ZABRZE,18.795194,50.369265, 49.36666666666667, 982.475, 21.825,2.0,1.591666666666666, 2026-07-20 20:06:22
SZKOŁA PODSTAWOWA NR 41 IM. WŁADYSŁAWA BRONIEWSKIEGO W GLIWICACH, UL. KORMORANÓW, 44-100, GLIWICE,18.6561,50.274791, 44.68333333333334, 985.625, 21.799999999999997,1.866666666666666,1.474999999999999, 2026-07-20 20:06:22
SZKOŁA PODSTAWOWA NR 7 IM. ADAMA MICKIEWICZA W GLIWICACH, UL. TARNOGÓRSKA, 44-100, GLIWICE,18.684621,50.306626, 44.00833333333333, 985.3083333333334, 22.416666666666668,1.966666666666666,1.533333333333333, 2026-07-20 20:06:22
MIEJSKA SZKOŁA PODSTAWOWA Z ODDZIAŁAMI INTEGRACYJNYMI NR 2 IM. KAROLA MIARKI W KNUROWIE, UL. WILSONA, 44-190, KNURÓW,18.664685,50.223275, 43.38333333333333, 986.2083333333334, 22.391666666666666,2.025,1.65, 2026-07-20 20:06:22
SZKOŁA PODSTAWOWA IM. MARGARETHY KAMPRAD W JAROSTACH, UL. LEŚNA, 97-310, JAROSTY,19.68775849,51.45636536, 51.422222222222224, 990.2333333333333, 22.022222222222222,1.7888888888888892,1.7666666666666662, 2026-07-20 20:06:22
SZKOŁA PODSTAWOWA IM. DR HENRYKA JORDANA W KSAWEROWIE, UL. ZACHODNIA, 95-054, KSAWERÓW,19.39486431,51.68227822, 58.80833333333334, 990.4, 20.358333333333334,2.4,2.008333333333333, 2026-07-20 20:06:22
BRANŻOWA SZKOŁA I STOPNIA NR 1 W OPOCZNIE, UL. WOJCIECHA KOSSAKA, 26-300, OPOCZNO,20.27237638,51.37764127, 55.88333333333333, 991.4499999999999, 20.658333333333335,2.775,2.199999999999999, 2026-07-20 20:06:22
SZKOŁA PODSTAWOWA NR 157 IM. IGNACEGO JANA PADEREWSKIEGO W KRAKOWIE, UL. LUDWIKA RYDYGIERA, 30-695, KRAKÓW-PODGÓRZE,20.00607,50.006338, 35.391666666666666, 986.4833333333332, 24.183333333333334,2.758333333333333,2.275, 2026-07-20 20:06:22
I LICEUM OGÓLNOKSZTAŁCĄCE IM. JĘDRZEJA ŚNIADECKIEGO W PABIANICACH, UL. STANISŁAWA MONIUSZKI, 95-200, PABIANICE,19.32977177,51.65677453, 55.324999999999996, 989.8833333333333, 20.433333333333334,2.266666666666666,1.841666666666666, 2026-07-20 20:06:22
SZKOŁA PODSTAWOWA IM.MARII KONOPNICKIEJ W ROZTOCE, , 34-606, ROZTOKA,20.4571424,49.6263815, 43.949999999999996, 952.9583333333334, 22.016666666666666,6.358333333333333,5.55, 2026-07-20 20:06:22
PUBLICZNA SZKOŁA PODSTAWOWA W STOBIECKU SZLACHECKIM, , 97-561, STOBIECKO SZLACHECKIE,19.38629184,51.10621326, 46.86666666666667, 986.7916666666666, 21.033333333333335,1.483333333333333,1.4333333333333331, 2026-07-20 20:06:22
SZKOŁA PODSTAWOWA IM. JANA PAWŁA II W USTKOWIE, , 98-290, USTKÓW,18.600692,51.766123, 66.65, 997.4833333333332, 18.941666666666666,2.016666666666667,1.7000000000000002, 2026-07-20 20:06:22
SZKOŁA PODSTAWOWA NR 60 IM. STANISŁAWA WYSPIAŃSKIEGO W KRAKOWIE, UL. KAZIMIERZA ODNOWICIELA, 31-481, KRAKÓW-ŚRÓDMIEŚCIE,19.970521,50.088055, 38.35, 988.3, 23.05,2.43,2.04, 2026-07-20 20:06:22
SZKOŁA PODSTAWOWA IM. MARSZAŁKA JÓZEFA PIŁSUDSKIEGO W WARTKOWICACH, UL. LEGIONÓW POLSKICH, 99-220, WARTKOWICE,19.00434298,51.97577194, 65.04166666666667, 999.3666666666667, 19.325,4.608333333333333,3.8583333333333343, 2026-07-20 20:06:22
SZKOŁA PODSTAWOWA NR 2 IM. KONSTYTUCJI 3-GO MAJA W MĘCINIE, , 34-654, MĘCINA,20.5404381,49.7016283, 43.336363636363636, 959.0545454545455, 22.727272727272727,2.727272727272727,2.363636363636363, 2026-07-20 20:06:22
BRANŻOWA SZKOŁA I STOPNIA NR 2 W GORLICACH, UL. JÓZEFA MICHALUSA, 38-300, GORLICE,21.173963,49.66959, 39.75555555555556, 981.4000000000001, 23.644444444444446,2.777777777777777,2.4666666666666672, 2026-07-20 20:06:22
SZKOŁA PODSTAWOWA NR 2 IM HENRYKA SIENKIEWICZA W PRZYSZOWEJ, , 34-604, PRZYSZOWA,20.4806341,49.6603381, 46.949999999999996, 960.5500000000001, 22.95,3.708333333333333,3.441666666666666, 2026-07-20 20:06:22
SZKOŁA PODSTAWOWA IM. KRÓLOWEJ JADWIGI W WYSOKIEM, , 34-600, WYSOKIE,20.5394861,49.6552386, 39.80833333333333, 949.75, 22.583333333333332,3.0,2.541666666666666, 2026-07-20 20:06:22
SZKOŁA PODSTAWOWA NR 1 Z ODDZIAŁAMI INTEGRACYJNYMI W RACIBORZU, UL. CECYLII, 47-400, RACIBÓRZ,18.2321525,50.0999982, 30.96666666666667, 992.9333333333334, 25.599999999999998,2.199999999999999,1.7416666666666671, 2026-07-20 20:06:22
SZKOŁA PODSTAWOWA IM. ŚW. STANISŁAWA KOSTKI W NOWEJ WSI SZLACHECKIEJ, UL. SZKOLNA, 32-060, NOWA WIEŚ SZLACHECKA,19.6970908,50.026212, 36.858333333333334, 984.4583333333334, 23.833333333333332,38.61666666666667,32.49166666666667, 2026-07-20 20:06:22
SZKOŁA PODSTAWOWA NR 3 IM. MARII DĄBROWSKIEJ W RESZLU, UL. MARII KONOPNICKIEJ, 11-440, RESZEL,21.1486175,54.052554, 57.73636363636364, 996.0272727272727, 19.736363636363635,1.354545454545454,1.09090909090909, 2026-07-20 20:06:22
SZKOŁA PODSTAWOWA NR 1 IM. MIKOŁAJA KOPERNIKA W WĘGORZEWIE, UL. PIONIERÓW, 11-600, WĘGORZEWO,21.7379192,54.2136049, 75.23333333333333, 995.3833333333333, 18.816666666666666,3.025,2.625, 2026-07-20 20:06:22
ZESPÓŁ SZKÓŁ GMINNYCH IM. HENRYKA SIENKIEWICZA W STANISŁAWICACH SZKOŁA PODSTAWOWA W STANISŁAWICACH, , 32-015, STANISŁAWICE,20.350192,49.982029, 27.358333333333334, 990.4916666666667, 28.65833333333333,3.8,3.341666666666667, 2026-07-20 20:06:22
TECHNIKUM NR 3 W ZESPOLE SZKÓŁ NR 3 IM. KS. PROF. JÓZEFA TISCHNERA W BOCHNI, UL. KRAKOWSKA, 32-700, BOCHNIA,20.421654,49.965508, 35.74166666666667, 988.0749999999999, 24.21666666666667,2.441666666666667,2.05, 2026-07-20 20:06:22
SZKOŁA PODSTAWOWA NR 94 W ŁODZI, UL. ZACISZE, 90-228, ŁÓDŹ-ŚRÓDMIEŚCIE,19.47642378,51.77789288, 61.09166666666667, 987.25, 19.650000000000002,2.5749999999999997,2.183333333333333, 2026-07-20 20:06:22
SZKOŁA PODSTAWOWA NR 1 IM. STEFANA ŻEROMSKIEGO W ŻUROMINIE, UL. WYZWOLENIA, 09-300, ŻUROMIN,19.911175,53.071036, 71.95, 995.5083333333333, 18.616666666666667,3.266666666666667,3.191666666666666, 2026-07-20 20:06:22
TECHNIKUM IM. WINCENTEGO WITOSA W STUDZIEŃCU, , 09-200, STUDZIENIEC,19.640243,52.877888, 70.93333333333334, 999.3833333333333, 18.575,1.591666666666666,1.474999999999999, 2026-07-20 20:06:22
SZKOŁA PODSTAWOWA W SYPITKACH, , 19-314, SYPITKI,22.5643375,53.7876812, 66.2875, 995.0125, 19.65,2.3875,2.175, 2026-07-20 20:06:22
SZKOŁA PODSTAWOWA IM. TADEUSZA KOŚCIUSZKI W ZBROSŁAWICACH, UL. WOLNOŚCI, 42-674, ZBROSŁAWICE,18.74511,50.415455, 42.61666666666667, 984.9, 22.083333333333332,2.8,2.283333333333333, 2026-07-20 20:06:22
SZKOŁA PODSTAWOWA NR 4 Z ODDZIAŁAMI SPORTOWYMI I MISTRZOSTWA SPORTOWEGO W ŻORACH, UL. BORYŃSKA, 44-240, ŻORY,18.687221,50.039349, 34.65833333333333, 981.5833333333334, 23.266666666666666,2.625,2.258333333333333, 2026-07-20 20:06:22
SZKOŁA PODSTAWOWA NR 10 IM. MARII SKŁODOWSKIEJ-CURIE W ZDUŃSKIEJ WOLI, UL. ZIELONA, 98-220, ZDUŃSKA WOLA,18.95037552,51.60020179, 62.800000000000004, 992.3666666666667, 18.916666666666668,1.9083333333333328,1.5, 2026-07-20 20:06:22
SZKOŁA PODSTAWOWA NR 4 IM.FRANCISZKA STUSKA W ORZESZU JAŚKOWICACH, UL. STUSKA, 43-180, ORZESZE,18.746978,50.145788, 49.25833333333333, 982.275, 22.116666666666664,2.025,1.983333333333333, 2026-07-20 20:06:22
SZKOŁA PODSTAWOWA NR 2 IM. JANA WYPLERA W RUDZIE ŚLĄSKIEJ, UL. GWARECKA, 41-705, RUDA ŚLĄSKA,18.89349369757705,50.26771940061391, 47.199999999999996, 986.5583333333334, 21.724999999999998,1.466666666666666,1.083333333333333, 2026-07-20 20:06:22
IV LICEUM OGÓLNOKSZTAŁCĄCE IM. ORLĄT LWOWSKICH W GLIWICACH, UL. KOZIELSKA, 44-100, GLIWICE,18.654651,50.298038, 43.05, 988.35, 22.06,2.26,1.73, 2026-07-20 20:06:22
SZKOŁA PODSTAWOWA NR 3 I. BOHATERÓW POWSTANIA WARSZAWSKIEGO Z ODDZIAŁAMI INTEGRACYJNYMI W PIASTOWIE, UL. ALEJA TYSIĄCLECIA, 05-820, PIASTÓW,20.841563186509138,52.178313490439706, 71.25833333333334, 1002.7083333333334, 18.591666666666665,1.9083333333333328,1.7000000000000002, 2026-07-20 20:06:22
TECHNIKUM W BIECZU, UL. KAZIMIERZA WIELKIEGO, 38-340, BIECZ,21.25576524232724,49.73291457112003, 32.6, 983.1833333333334, 26.75,2.5,2.291666666666666, 2026-07-20 20:06:22
SZKOŁA PODSTAWOWA NR 16 IM. JANUSZA KORCZAKA W RUDZIE ŚLĄSKIEJ, UL. KUKUŁCZA, 41-710, RUDA ŚLĄSKA,18.88033,50.268433, 43.725, 984.5166666666668, 22.325,2.641666666666666,2.008333333333333, 2026-07-20 20:06:22
SZKOŁA PODSTAWOWA IM.STEFANA CZARNIECKIEGO W RACŁAWICACH, , 38-323, RACŁAWICE,21.127689745801828,50.06979323518478, 32.40833333333333, 995.9166666666666, 27.025000000000002,3.291666666666666,3.025, 2026-07-20 20:06:22
SZKOŁA PODSTAWOWA IM. WŁADYSŁAWA BRONIEWSKIEGO W SZCZEJKOWICACH, UL. WIEJSKA, 44-246, SZCZEJKOWICE,18.679024,50.095496, 47.958333333333336, 982.7166666666667, 22.116666666666664,2.225,2.033333333333333, 2026-07-20 20:06:22
SZKOŁA PODSTAWOWA W PONIATOWIE, UL. SZKOLNA, 09-300, PONIATOWO,19.864252,53.041259, 60.53333333333333, 996.1583333333333, 21.650000000000002,0.916666666666666,0.774999999999999, 2026-07-20 20:06:22
SZKOŁA PODSTAWOWA IM. ZIEMI WARMIŃSKIEJ W PIENIĘŻNIE, UL. ORNECKA, 14-520, PIENIĘŻNO,20.1287545,54.2359313, 74.925, 999.8666666666667, 18.066666666666666,2.458333333333333,2.133333333333333, 2026-07-20 20:06:22
SZKOŁA PODSTAWOWA NR 5 IM. POLSKICH OLIMPIJCZYKÓW W ŚWIECIU, UL. WOJSKA POLSKIEGO, 86-105, ŚWIECIE,18.404523109363243,53.4022885304552, 66.69166666666666, 1006.3333333333334, 19.733333333333334,2.266666666666666,1.916666666666666, 2026-07-20 20:06:22
TECHNIKUM NR 2 W KĘTRZYNIE, UL. POZNAŃSKA, 11-400, KĘTRZYN,21.3575617,54.0772049, 67.47272727272727, 1002.1818181818181, 19.663636363636364,0.29090909090909,0.209090909090909, 2026-07-20 20:06:22
I LICEUM OGÓLNOKSZTAŁCĄCE IM. WOJCIECHA KĘTRZYŃSKIEGO W KĘTRZYNIE, UL. POWSTAŃCÓW WARSZAWY, 11-400, KĘTRZYN,21.3725281,54.0774004, 62.30833333333334, 997.1916666666667, 19.316666666666666,1.983333333333333,1.6416666666666662, 2026-07-20 20:06:22
SZKOŁA PODSTAWOWA NR 3 IM. HENRYKA SIENKIEWICZA W EŁKU, UL. GRODZIEŃSKA, 19-300, EŁK,22.3468805,53.832444, 69.7, 993.1999999999999, 18.041666666666668,2.6166666666666663,2.383333333333333, 2026-07-20 20:06:22
SZKOŁA PODSTAWOWA NR 13 Z ODDZIAŁAMI SPORTOWYMI I MISTRZOSTWA SPORTOWEGO IM. POLSKICH OLIMPIJCZYKÓW W ŻORACH, OS. OSIEDLE PAWLIKOWSKIEGO, 44-240, ŻORY,18.68289226,50.03250482, 37.1, 981.7666666666668, 24.55,2.533333333333333,2.0, 2026-07-20 20:06:22
PRYWATNA SZKOŁA PODSTAWOWA W KRAKOWIE, UL. PODGÓRKI TYNIECKIE, 30-398, KRAKÓW-PODGÓRZE,19.84421916,50.01213341, 39.733333333333334, 988.625, 22.808333333333334,2.641666666666666,2.3, 2026-07-20 20:06:22
PUBLICZNA SZKOŁA PODSTAWOWA IM KARDYNAŁA STEFANA WYSZYŃSKIEGO W GŁOSKOWIE, , 08-412, GŁOSKÓW,21.693825,51.932915, 56.17272727272727, 995.5272727272727, 18.981818181818184,1.318181818181818,1.099999999999999, 2026-07-20 20:06:22
SZKOŁA PODSTAWOWA NR 5 IM I. J. PADEREWSKIEGO W PRUSZKOWIE, UL. JANA DŁUGOSZA, 05-804, PRUSZKÓW,20.815629142327243,52.18859558069476, 70.36666666666666, 1001.5583333333334, 18.458333333333332,1.758333333333333,1.5583333333333331, 2026-07-20 20:06:22
SZKOŁA PODSTAWOWA IM. HENRYKA SIENKIEWICZA W STARYM KĘBŁOWIE, , 08-430, STARY KĘBŁÓW,21.862929,51.791451, 49.73636363636364, 994.5727272727272, 20.2,2.454545454545454,2.072727272727272, 2026-07-20 20:06:22
TECHNIKUM W ŻELECHOWIE, UL. MARSZAŁKA JÓZEFA PIŁSUDSKIEGO, 08-430, ŻELECHÓW,21.898786,51.812356, 53.40833333333333, 993.3083333333333, 19.033333333333335,1.866666666666666,1.533333333333333, 2026-07-20 20:06:22
SZKOŁA PODSTAWOWA W ZESPOLE SZKÓŁ OGÓLNOKSZTAŁCĄCYCH W MAZOWIECKIM CENTRUM NEUROPSYCHIATRII W JÓZEFOWIE , UL. 3 MAJA, 05-420, JÓZEFÓW,21.234656,52.128054, 53.791666666666664, 1001.8000000000001, 20.858333333333334,1.508333333333333,1.341666666666666, 2026-07-20 20:06:22
II LICEUM OGÓLNOKSZTAŁCĄCE IM. GEN. GUSTAWA ORLICZ-DRESZERA W CHEŁMIE, UL. SZPITALNA, 22-100, CHEŁM,23.45593021,51.14267385, 37.75, 990.9250000000001, 24.383333333333336,2.816666666666666,2.291666666666666, 2026-07-20 20:06:22
SZKOŁA PODSTAWOWA IM.J.CHEŁMOŃSKIEGO W KUKLÓWCE RADZIEJOWICKIEJ, UL. SZKOLNA, 96-325, KUKLÓWKA RADZIEJOWICKA,20.59054414,52.04408065, 70.68181818181819, 1000.6363636363636, 19.21818181818182,1.918181818181818,1.654545454545454, 2026-07-20 20:06:22
SALEZJAŃSKA SZKOŁA PODSTAWOWA Z ODDZIAŁAMI INTEGRACYJNYMI W SALEZJAŃSKIM OŚRODKU SZKOLNO-WYCHOWAWCZYM W TARNOWSKICH GÓRACH, UL. JANA ŚNIADECKIEGO, 42-604, TARNOWSKIE GÓRY,18.80622755,50.43256357, 49.75, 962.74, 21.119999999999997,2.4,1.85, 2026-07-20 20:06:22
SZKOŁA PODSTAWOWA NR 1 IM PIERWSZEGO MARSZAŁKA POLSKI JÓZEFA PIŁSUDSKIEGO W SULEJÓWKU, UL. IDZIKOWSKIEGO, 05-070, SULEJÓWEK,21.26694575396344,52.24433487687851, 52.916666666666664, 1000.0583333333334, 20.158333333333335,1.65,1.3916666666666662, 2026-07-20 20:06:22
NIEPUBLICZNA INTEGRACYJNA SZKOŁA PODSTAWOWA W MYSIADLE, UL. KRÓTKA, 05-515, MYSIADŁO,21.005366,52.099954, 65.71666666666667, 1002.025, 19.2,1.583333333333333,1.349999999999999, 2026-07-20 20:06:22
PUBLICZNA SZKOŁA PODSTAWOWA IM. JANUSZA KORCZAKA W GOŹDZIE, UL. STAROWIEJSKA, 26-634, GÓZD,21.378914500000004,51.376315985021016, 58.275, 992.5333333333333, 19.091666666666665,1.991666666666666,1.65, 2026-07-20 20:06:22
SZKOŁA PODSTAWOWA NR 4 IM. JANA PAWŁA II Z ODDZIAŁAMI PRZEDSZKOLNYMI I ODDZIAŁAMI SPORTOWYMI W PRUSZKOWIE , UL. HUBALA, 05-800, PRUSZKÓW,20.81122021534552,52.16432045510862, 71.60833333333333, 1003.4250000000001, 18.45,1.9,1.316666666666666, 2026-07-20 20:06:22
SZKOŁA PODSTAWOWA W OTWOCKU WIELKIM, UL. ZAMKOWA, 05-480, OTWOCK WIELKI,21.249772,52.054498, 60.85833333333333, 1002.1750000000001, 19.766666666666666,1.808333333333333,1.491666666666666, 2026-07-20 20:06:22
NIEPUBLICZNA SZKOŁA PODSTAWOWA WIELICZKA MONTESSORI SCHOOL W WIELICKIEJ SZKOLE MONTESSORI, UL. JANA MIKOŁAJA DANIŁOWICZA, 32-020, WIELICZKA,20.05646002,49.98203058, 39.125, 984.0083333333333, 23.441666666666666,2.683333333333333,2.683333333333333, 2026-07-20 20:06:22
PUBLICZNA SZKOŁA PODSTAWOWA W OBRAZOWIE, , 27-641, OBRAZÓW,21.6579632,50.69068702480904, 40.6, 989.3916666666665, 22.40833333333333,3.8249999999999993,3.175, 2026-07-20 20:06:22
SZKOŁA PODSTAWOWA W BRZOZOWIE, UL. MIODOWA, 86-200, BRZOZOWO,18.4238755,53.314175, 73.77499999999999, 998.9499999999999, 18.583333333333332,1.191666666666666,0.991666666666666, 2026-07-20 20:06:22
SZKOŁA PODSTAWOWA NR 199 IM. JULIANA TUWIMA W ŁODZI, UL. JÓZEFA ELSNERA, 92-504, ŁÓDŹ-WIDZEW,19.531114643683964,51.75675184434886, 69.925, 987.5666666666666, 18.533333333333335,5.0,3.875, 2026-07-20 20:06:22
SZKOŁA PODSTAWOWA IM. KS. KARD. STEFANA WYSZYŃSKIEGO W BORZYMINIE, , 87-500, BORZYMIN,19.3345342,53.0561291, 51.65833333333333, 995.1833333333334, 23.025000000000002,1.95,1.716666666666666, 2026-07-20 20:06:22
SZKOŁA PODSTAWOWA IM. TADEUSZA KOŚCIUSZKI W ŁĘTOWICACH, , 33-121, ŁĘTOWICE,20.845262,49.994632, 42.30833333333333, 990.9416666666666, 23.366666666666664,6.166666666666667,6.133333333333334, 2026-07-20 20:06:22
SZKOŁA PODSTAWOWA IM. JANA KOCHANOWSKIEGO W BĘCZARCE, , 32-444, BĘCZARKA,19.8615647,49.8750803, 43.324999999999996, 976.0583333333334, 22.425,3.091666666666667,2.775, 2026-07-20 20:06:22
TECHNIKUM W NAKLE ŚLĄSKIM, UL. GUSTAWA MORCINKA, 42-620, NAKŁO ŚLĄSKIE,18.899961,50.436198, 51.78333333333333, 981.3666666666667, 20.483333333333334,1.983333333333333,1.383333333333333, 2026-07-20 20:06:22
SZKOŁA PODSTAWOWA NR 8 IM. KRZYSZTOFA KAMILA BACZYŃSKIEGO W TARNOWIE, UL. BITWY POD STUDZIANKAMI, 33-100, TARNÓW,21.00415196,50.01968672, 39.958333333333336, 987.6166666666667, 23.266666666666666,3.233333333333333,2.8249999999999997, 2026-07-20 20:06:22
SZKOŁA PODSTAWOWA IM.TADEUSZA KOŚCIUSZKI W GŁOGOCZOWIE, , 32-444, GŁOGOCZÓW,19.8764713,49.8949648, 29.666666666666668, 985.7999999999998, 27.96666666666667,3.1,2.5666666666666678, 2026-07-20 20:06:22
SZKOŁA PODSTAWOWA IM. POWSTAŃCÓW STYCZNIOWYCH W DWIKOZACH, UL. SPÓŁDZIELCZA, 27-620, DWIKOZY,21.78213112698172,50.73763072488988, 38.425, 995.9583333333334, 23.2,3.908333333333333,3.333333333333333, 2026-07-20 20:06:22
SZKOŁA PODSTAWOWA IM JANA KOCHANOWSKIEGO W RACIECHOWICACH, , 32-415, RACIECHOWICE,20.1425376,49.8447436, 46.05833333333334, 978.6083333333335, 21.34166666666667,3.116666666666666,2.658333333333333, 2026-07-20 20:06:22
SZKOŁA PODSTAWOWA IM. 100-LECIA RUCHU LUDOWEGO W WIERZCHOSŁAWICACH, , 33-122, WIERZCHOSŁAWICE,20.8578193,50.02129351, 40.43333333333334, 991.1666666666666, 23.46666666666667,3.4,2.933333333333333, 2026-07-20 20:06:22
SZKOŁA PODSTAWOWA NR 2 IM. 12 PUŁKU PIECHOTY W SPYTKOWICACH, , 34-745, SPYTKOWICE,19.8620555,49.5891356, 40.971428571428575, 956.1142857142858, 23.214285714285715,2.657142857142857,2.285714285714285, 2026-07-20 20:06:22
NIEPUBLICZNA SZKOŁA PODSTAWOWA MONTESSORI W WIELICZCE, UL. JASNA, 32-020, WIELICZKA,20.04131557116481,49.98142573025661, 40.983333333333334, 985.7166666666667, 24.391666666666666,2.858333333333333,2.275, 2026-07-20 20:06:22
TECHNIKUM IM. KAROLA WOJTYŁY W SUŁKOWICACH, UL. SZKOLNA, 32-440, SUŁKOWICE,19.79959,49.83879, 45.30833333333334, 982.2833333333333, 22.233333333333334,3.066666666666666,2.833333333333333, 2026-07-20 20:06:22
SZKOŁA PODSTAWOWA NR 1 IM. ADAMA MICKIEWICZA W KRZESZOWICACH, UL. DŁUGA, 32-065, KRZESZOWICE,19.63231,50.14192, 31.7, 1030.375, 26.025000000000002,2.6,2.591666666666667, 2026-07-20 20:06:22
SZKOŁA PODSTAWOWA IM. KSIĘCIA JÓZEFA PONIATOWSKIEGO W MNIKOWIE, , 32-084, MNIKÓW,19.7203981,50.0603945, 38.275, 986.7833333333333, 23.400000000000002,2.933333333333333,2.541666666666666, 2026-07-20 20:06:22
RZEMIEŚLNICZA BRANŻOWA SZKOŁA I STOPNIA W TARNOWIE, PL. DWORCOWY, 33-100, TARNÓW,20.97230288,50.00592873, 35.80833333333333, 990.1750000000001, 24.849999999999998,3.608333333333333,3.166666666666666, 2026-07-20 20:06:22
PUBLICZNA SZKOŁA PODSTAWOWA NR4 IM. EUGENIUSZA KWIATKOWSKIEGO W STALOWEJ WOLI, UL. NIEZŁOMNYCH, 37-450, STALOWA WOLA,22.049257,50.566117, 36.699999999999996, 994.6666666666666, 24.016666666666666,3.199999999999999,2.65, 2026-07-20 20:06:22
PUBLICZNA SZKOŁA PODSTAWOWA NR 30 IM. KRÓLOWEJ JADWIGI W RADOMIU, UL. PIASTOWSKA, 26-600, RADOM,21.15801836,51.43197508, 57.56666666666666, 996.275, 18.875,1.741666666666666,1.491666666666666, 2026-07-20 20:06:22
PUBLICZNA SZKOŁA PODSTAWOWA IM. 100. ROCZNICY ODZYSKANIA NIEPODLEGŁOŚCI PRZEZ POLSKĘ W KORZECKU, , 26-060, KORZECKO,20.40868672,50.80193767, 46.208333333333336, 984.8416666666667, 21.858333333333334,8.266666666666667,7.024999999999999, 2026-07-20 20:06:22
SZKOŁA PODSTAWOWA IM. GENERAŁA STANISŁAWA MACZKA W BLIŻYNIE, UL. PIASKOWA, 26-120, BLIŻYN,20.7611656,51.10539138, 59.05833333333334, 982.4416666666666, 19.675,3.116666666666666,2.575, 2026-07-20 20:06:22
SZKOŁA PODSTAWOWA W OKSIE, UL. PL. M. REJA, 28-363, OKSA,20.10227008,50.72821359, 40.55833333333333, 983.8666666666667, 23.008333333333336,2.65,2.225, 2026-07-20 20:06:22
III LICEUM OGÓLNOKSZTAŁCĄCE W ZESPOLE SZKÓŁ NR 1 W PSZCZYNIE , UL. KAZIMIERZA WIELKIEGO, 43-200, PSZCZYNA,18.945466,49.965741, 34.475, 984.3249999999999, 25.59166666666667,2.583333333333333,2.066666666666667, 2026-07-20 20:06:22
SZKOŁA PODSTAWOWA W JELENIOWIE, , 26-006, JELENIÓW,21.116233057672765,50.84449324956324, 48.627272727272725, 979.1727272727272, 20.145454545454545,2.054545454545454,1.8272727272727272, 2026-07-20 20:06:22
SZKOŁA PODSTAWOWA W ŁYSAKOWIE, , 28-300, ŁYSAKÓW DRUGI,20.31178517,50.59252463, 39.3, 983.26, 22.27,3.889999999999999,3.29, 2026-07-20 20:06:22
SPOŁECZNA SZKOŁA PODSTAWOWA NR 1 IM. KS.PROF. JÓZEFA TISCHNERA W TARNOWIE, UL. GUMNISKA, 33-100, TARNÓW,21.00131621,50.00814381, 41.225, 990.1750000000001, 23.224999999999998,4.7,4.116666666666666, 2026-07-20 20:06:22
SZKOŁA PODSTAWOWA IM. GEN. STANISŁAWA SKALSKIEGO W POLICHNIE, , 26-060, POLICHNO,20.3964092,50.82155974, 43.84166666666667, 984.9250000000001, 22.65833333333333,2.275,1.991666666666666, 2026-07-20 20:06:22
TECHNIKUM W RACIĄŻU, UL. KILIŃSKIEGO, 09-140, RACIĄŻ,20.127731,52.778712, 72.78333333333333, 998.525, 18.916666666666668,1.508333333333333,1.325, 2026-07-20 20:06:22
PUBLICZNA SZKOŁA PODSTAWOWA IM.HENRYKA SIENKIEWICZA W MYŚLISZEWICACH, , 26-630, MYŚLISZEWICE,21.2905313,51.413341302261024, 67.625, 996.0500000000001, 18.941666666666666,4.524999999999999,4.55, 2026-07-20 20:06:22
SZKOŁA PODSTAWOWA NR 6 IM. DRA WŁADYSŁAWA GĘBIKA Z ODDZIAŁAMI INTEGRACYJNYMI W KWIDZYNIE, UL. GRUNWALDZKA, 82-500, KWIDZYN,18.932667,53.723949, 65.26666666666667, 1000.9333333333334, 19.425,1.083333333333333,1.0, 2026-07-20 20:06:22
SZKOŁA PODSTAWOWA W BRZEŚCIU, , 28-400, BRZEŚCIE,20.54586641,50.5470206, 39.81666666666667, 989.5833333333334, 23.441666666666666,2.908333333333333,2.583333333333333, 2026-07-20 20:06:22
SZKOŁA PODSTAWOWA W LUBOWIDZU, UL. JANA PAWŁA II, 09-304, LUBOWIDZ,19.842984,53.120566, 76.2, 996.4250000000001, 17.925,1.9083333333333328,1.583333333333333, 2026-07-20 20:06:22
SZKOŁA PODSTAWOWA NR 2 IM. JANA PAWŁA II W GORZYCACH, UL. EDUKACJI NARODOWEJ, 39-432, GORZYCE,21.83097317,50.67218435, 36.975, 998.5, 25.258333333333336,2.958333333333333,2.6166666666666663, 2026-07-20 20:06:22
NIEPUBLICZNA SZKOŁA PODSTAWOWA W NIWCE, , 33-130, NIWKA,20.853454,50.056594, 40.725, 993.1875, 24.075,2.8874999999999997,2.6, 2026-07-20 20:06:22
TECHNIKUM NR 2 W CZĘSTOCHOWIE, UL. WARSZAWSKA, 42-200, CZĘSTOCHOWA,19.1485028,50.7931394, 48.208333333333336, 985.6083333333335, 21.36666666666667,2.266666666666666,1.8499999999999992, 2026-07-20 20:06:22
SZKOŁA PODSTAWOWA IM. ORŁA BIAŁEGO W SZCZYTNEJ, UL. KOŚCIELNA, 57-330, SZCZYTNA,16.44633002,50.41610314, 51.720000000000006, 961.0200000000001, 19.16,2.48,2.05, 2026-07-20 20:06:22
PUBLICZNA SZKOŁA PODSTAWOWA IM. JANA KOCHANOWSKIEGO W WÓJCICACH, UL. GŁÓWNA, 55-220, WÓJCICE,17.2122623,50.4609086, 60.69, 998.8799999999999, 18.57,3.07,2.68, 2026-07-20 20:06:22
I LICEUM OGÓLNOKSZTAŁCĄCE IM. BOLESŁAWA CHROBREGO W KŁODZKU, UL. WOJSKA POLSKIEGO, 57-300, KŁODZKO,16.651149,50.4373, 44.24166666666667, 980.2833333333333, 21.55,1.9,1.65, 2026-07-20 20:06:22
SZKOŁA PODSTAWOWA W BIENIOWICACH, , 59-216, BIENIOWICE,16.256564,51.258614, 67.72500000000001, 1002.2000000000002, 19.599999999999998,1.675,1.441666666666666, 2026-07-20 20:06:22
SZKOŁA PODSTAWOWA IM. ŚW. JADWIGI ŚLĄSKIEJ W ŻERNIKACH WROCŁAWSKICH, UL. KOLEJOWA, 55-010, ŻERNIKI WROCŁAWSKIE,17.0609105,51.0305737, 65.20833333333333, 1000.0666666666666, 19.041666666666668,1.383333333333333,1.191666666666666, 2026-07-20 20:06:22
SZKOŁA PODSTAWOWA NR 4 Z ODDZIAŁAMI INTEGRACYJNYMI W BIELAWIE, UL. LUDWIKA WARYŃSKIEGO, 58-260, BIELAWA,16.6008348,50.6662832, 55.6, 971.8272727272728, 18.845454545454547,1.363636363636363,1.099999999999999, 2026-07-20 20:06:22
SZKOŁA PODSTAWOWA IM. JANA PAWŁA II W GRODZISZCZU, , 58-112, GRODZISZCZE,16.560664,50.798212, 56.975, 987.6416666666668, 19.291666666666668,1.4,1.2, 2026-07-20 20:06:22
BRANŻOWA SZKOŁA I STOPNIA NR 6 W ZESPOLE SZKÓŁ PRZEMYSŁU SPOŻYWCZEGO IM. POWSTAŃCÓW WIELKOPOLSKICH W ŁODZI, UL. FRANCISZKAŃSKA, 91-845, ŁÓDŹ-BAŁUTY,19.421884,51.7848081, 65.46666666666667, 988.2916666666666, 19.14166666666667,2.675,2.208333333333333, 2026-07-20 20:06:22
TECHNIKUM NR 1 W ZESPOLE SZKÓŁ NR 1 IM. STANISŁAWA STASZICA W BOCHNI, UL. EDWARDA WINDAKIEWICZA, 32-700, BOCHNIA,20.416325,49.966639, 43.525, 985.7333333333332, 23.625,2.625,2.324999999999999, 2026-07-20 20:06:22
SZKOŁA PODSTAWOWA IM. M. KOPERNIKA W KOŚCIELCU, , 32-100, KOŚCIELEC,20.3906858,50.2001419, 42.88333333333333, 990.9499999999999, 22.516666666666666,3.041666666666666,2.766666666666667, 2026-07-20 20:06:22
SZKOŁA PODSTAWOWA IM. MARII KONOPNICKIEJ W LIPINACH, , 92-701, LIPINY,19.67220915,51.80665653, 67.51666666666667, 985.6333333333333, 19.241666666666667,2.925,2.441666666666667, 2026-07-20 20:06:22
I LICEUM OGÓLNOKSZTAŁCĄCE IM. MARCINA KROMERA W GORLICACH, UL. MARCINA KROMERA, 38-300, GORLICE,21.155748,49.659518, 32.86666666666667, 978.9833333333332, 26.650000000000002,2.9916666666666663,2.633333333333333, 2026-07-20 20:06:22
SZKOŁA PODSTAWOWA IM. IGNACEGO ŁUKASIEWICZA W KOBYLANCE, , 38-303, KOBYLANKA,21.222151,49.669007, 35.266666666666666, 980.8916666666665, 25.791666666666668,3.308333333333333,2.766666666666667, 2026-07-20 20:06:22
SZKOŁA PODSTAWOWA IM.ŚWIĘTEJ KINGI W KORCZYNIE, , 38-340, KORCZYNA,21.255204,49.702509, 37.06666666666667, 977.6666666666666, 25.183333333333334,2.658333333333333,2.358333333333333, 2026-07-20 20:06:22
TECHNIKUM W GOŁOTCZYŹNIE, UL. CIECHANOWSKA, 06-430, GOŁOTCZYZNA,20.68880627301113,52.79264333773238, 81.76666666666667, 998.1583333333333, 16.441666666666666,1.375,1.1833333333333331, 2026-07-20 20:06:22
SZKOŁA PODSTAWOWA IM. WŁADYSŁAWA JÓŹWICKIEGO W GÓRZNIE , UL. DŁUGA, 08-404, GÓRZNO,21.7059907,51.84700102762625, 56.208333333333336, 994.5083333333333, 19.216666666666665,5.366666666666667,4.391666666666668, 2026-07-20 20:06:22
SZKOŁA PODSTAWOWA NR 2 Z ODDZIAŁAMI INTEGRACYJNYMI IM. ŻOŁNIERZY A.K. II REJONU CELKÓW W MARKACH, UL. SZKOLNA, 05-270, MARKI,21.10374427116481,52.31729535665526, 62.9, 1002.0833333333334, 18.666666666666668,1.816666666666666,1.5999999999999992, 2026-07-20 20:06:22
SZKOŁA PODSTAWOWA IM.KAWALERÓW ORDERU UŚMIECHU W SIEROSŁAWICACH, , 32-120, SIEROSŁAWICE,20.461954,50.141099, 39.19166666666667, 991.7166666666667, 23.78333333333333,4.175,3.708333333333333, 2026-07-20 20:06:22
SZKOŁA PODSTAWOWA IM.ŚW.JANA PAWŁA II W ZAWADACH, UL. KOŚCIUSZKI, 16-075, ZAWADY,22.66793745,53.15651651, 60.7, 1000.85, 19.29,2.01,1.65, 2026-07-20 20:06:22
SZKOŁA PODSTAWOWA NR 2 IM. KRÓLOWEJ JADWIGI W CZECHOWICACH-DZIEDZICACH, UL. WĘGLOWA, 43-502, CZECHOWICE-DZIEDZICE,19.0071238,49.9283149, 41.49166666666667, 985.0500000000001, 22.875,3.3666666666666663,2.65, 2026-07-20 20:06:22
PUBLICZNA SZKOŁA PODSTAWOWA NR 1 Z ODDZIAŁAMI DWUJĘZYCZNYMI W MOGIELNICY, UL. NOWOMIEJSKA, 05-640, MOGIELNICA,20.72027,51.6909326, 65.54166666666667, 996.1333333333333, 19.275000000000002,2.05,1.666666666666666, 2026-07-20 20:06:22
SZKOŁA PODSTAWOWA IM. STANISŁAWA LUBOMIRSKIEGO W NOWYM WIŚNICZU, UL. SZKOLNA, 32-720, NOWY WIŚNICZ,20.464022,49.911873, 38.93333333333333, 982.6166666666667, 23.0,2.183333333333333,2.083333333333333, 2026-07-20 20:06:22
PUBLICZNA SZKOŁA PODSTAWOWA IM.T. KOŚCIUSZKI W GŁOWACZOWIE, UL. WARECKA, 26-903, GŁOWACZÓW,21.3187284,51.6220175, 60.89166666666667, 998.275, 19.0,3.158333333333333,2.766666666666667, 2026-07-20 20:06:22
SZKOŁA PODSTAWOWA SPECJALNA NR 150 W KRAKOWIE, AL. ALEJA ADOLFA DYGASIŃSKIEGO, 30-820, KRAKÓW-PODGÓRZE,19.98983357116481,50.02147308570759, 38.142857142857146, 990.8142857142857, 21.985714285714288,10.37142857142857,8.2, 2026-07-20 20:06:22
PUBLICZNA SZKOŁA PODSTAWOWA IM. JÓZEFA BRANDTA W OROŃSKU, UL. SZKOLNA, 26-505, OROŃSKO,20.98980054,51.315665, 60.574999999999996, 991.6833333333334, 19.091666666666665,3.616666666666666,2.833333333333333, 2026-07-20 20:06:22
PUBLICZNA SZKOŁA PODSTAWOWA IM. BATALIONÓW CHŁOPSKICH W KLECZANOWIE, , 27-641, KLECZANÓW,21.57103098,50.71737244, 41.791666666666664, 984.5500000000001, 21.95,2.233333333333333,2.008333333333333, 2026-07-20 20:06:22
SZKOŁA PODSTAWOWA IM. BOHATERÓW WESTERPLATTE W ŁĘKAWICY, , 33-156, ŁĘKAWICA,19.60597,49.84172, 42.30833333333333, 985.4083333333333, 22.983333333333334,5.575,4.816666666666666, 2026-07-20 20:06:22
SZKOŁA PODSTAWOWA W STAROCHĘCINACH, , 26-060, STAROCHĘCINY,20.48081695,50.77685204, 44.98333333333333, 986.9583333333334, 22.025000000000002,2.916666666666666,2.449999999999999, 2026-07-20 20:06:22
SZKOŁA PODSTAWOWA NR 6 IM. KS. JANA TWARDOWSKIEGO W PSZCZYNIE, UL. KSIĘŻYCOWA, 43-200, PSZCZYNA,18.936162,49.965097, 39.775, 986.9583333333334, 23.45,2.8,2.516666666666666, 2026-07-20 20:06:22
SZKOŁA PODSTAWOWA IM.KAZIMIERZA PUŁASKIEGO W JADAMWOLI, , 34-606, JADAMWOLA,20.51122243,49.58092142, 42.68333333333334, 966.9, 21.866666666666664,2.891666666666667,2.55, 2026-07-20 20:06:22
SZKOŁA PODSTAWOWA NR 2 IM. MARII KONOPNICKIEJ W ŻYRARDOWIE, UL. GABRIELA NARUTOWICZA, 96-300, ŻYRARDÓW,20.43801027,52.05842119, 64.70833333333333, 999.6750000000001, 19.533333333333335,1.5,1.491666666666666, 2026-07-20 20:06:22
I LICEUM OGÓLNOKSZTAŁCĄCE IM. ZYGMUNTA KRASIŃSKIEGO W CIECHANOWIE, UL. 17 STYCZNIA, 06-400, CIECHANÓW,20.59878057,52.88501004, 66.95, 996.7299999999999, 18.6,1.01,0.909999999999999, 2026-07-20 20:06:22
SZKOŁA PODSTAWOWA W ŁUKOWEJ, , 26-060, ŁUKOWA,20.53811566,50.72732867, 39.25833333333333, 983.9916666666667, 24.508333333333336,2.6166666666666663,2.199999999999999, 2026-07-20 20:06:22
SZKOŁA PODSTAWOWA W WOLICY, UL. SZKOLNA, 26-060, WOLICA,20.47387736,50.75410087, 44.93333333333334, 986.475, 22.21666666666667,3.283333333333333,2.7416666666666663, 2026-07-20 20:06:22
SZKOŁA PODSTAWOWA IM. JANA PAWŁA II W ZBUCZYNIE, UL. JANA PAWŁA II, 08-106, ZBUCZYN,22.44061361,52.08688669, 56.10833333333333, 993.5833333333334, 19.391666666666666,2.308333333333333,1.95, 2026-07-20 20:06:22
TECHNIKUM NR 2 IM. EUGENIUSZA KWIATKOWSKIEGO W STARACHOWICACH, UL. 1 MAJA, 27-200, STARACHOWICE,21.06313317,51.05452968, 49.03333333333333, 983.9583333333334, 20.716666666666665,2.6999999999999997,2.4, 2026-07-20 20:06:22
PUBLICZNA SZKOŁA PODSTAWOWA IM. JANA KOCHANOWSKIEGO W POLANACH, , 26-680, POLANY,21.114656,51.2261, 54.80833333333334, 990.5416666666666, 19.716666666666665,2.041666666666666,1.966666666666666, 2026-07-20 20:06:22
SZKOŁA PODSTAWOWA W ZBELUTCE, , 26-025, ZBELUTKA-STARA WIEŚ,21.0993345,50.7310922, 46.78181818181818, 972.0, 20.61818181818182,2.9454545454545453,2.463636363636364, 2026-07-20 20:06:22
SZKOŁA PODSTAWOWA IM. STEFANA KARDYNAŁA WYSZYŃSKIEGO W PIERZCHNICY , UL. KARDYNAŁA STEFANA WYSZYŃSKIEGO, 26-015, PIERZCHNICA,20.74729757,50.6959636, 42.541666666666664, 980.6999999999999, 23.05,4.75,4.05, 2026-07-20 20:06:22
SZKOŁA PODSTWOWA IM.KSIĘDZA CZESŁAWA PRZYSTASIA W LUTORYŻU, , 36-040, LUTORYŻ,21.91921265254002,49.96511859568209, 34.06363636363636, 988.6818181818181, 24.645454545454548,4.136363636363637,3.8636363636363633, 2026-07-20 20:06:22
SZKOŁA PODSTAWOWA W BRDOWIE, UL. MICKIEWICZA, 62-620, BRDÓW,18.7293986,52.3533225, 61.73333333333333, 998.3499999999999, 19.900000000000002,1.083333333333333,0.8166666666666661, 2026-07-20 20:06:22
SZKOŁA PODSTAWOWA Z ODDZIAŁAMI INTEGRACYJNYMI NR 6 IM. SZARYCH SZEREGÓW W GRODZISKU MAZOWIECKIM, UL. SPORTOWA, 05-825, GRODZISK MAZOWIECKI,20.6192335,52.0987683, 72.97500000000001, 1001.9083333333333, 18.466666666666665,1.983333333333333,1.716666666666666, 2026-07-20 20:06:22
SZKOŁA PODSTAWOWA IM. 11 LISTOPADA W ŻÓŁWINIE, UL. SZKOLNA, 05-807, ŻÓŁWIN,20.7249857,52.09761779588044, 74.18333333333334, 1002.5583333333334, 18.183333333333334,1.708333333333333,1.441666666666666, 2026-07-20 20:06:22
PUBLICZNA SZKOŁA PODSTAWOWA IM. JANA PAWŁA II W WOLI TACZOWSKIEJ, , 26-652, WOLA TACZOWSKA,21.04512254,51.44935931, 63.775, 992.0916666666667, 18.400000000000002,3.041666666666666,3.025, 2026-07-20 20:06:22
LICEUM OGÓLNOKSZTAŁCĄCE IM. STEFANA ŻEROMSKIEGO W ŻYRARDOWIE, UL. JANINY JADWIGI KACPERSKIEJ, 96-300, ŻYRARDÓW,20.44495564,52.0675436, 71.75833333333334, 1002.1333333333333, 18.733333333333334,1.925,1.758333333333333, 2026-07-20 20:06:22
SZKOŁA PODSTAWOWA W ŚCINAWIE POLSKIEJ, , 55-200, ŚCINAWA POLSKA,17.33660972,50.93346737, 56.59166666666667, 999.4083333333333, 19.95,0.358333333333333,0.291666666666666, 2026-07-20 20:06:22
SZKOŁA PODSTAWOWA W ŚCINAWCE DOLNEJ, , 57-410, ŚCINAWKA DOLNA,16.5360171,50.4966472, 52.675000000000004, 980.2583333333333, 20.566666666666666,2.125,1.841666666666666, 2026-07-20 20:06:22
I LICEUM OGÓLNOKSZTAŁCĄCE IM. ADAMA MICKIEWICZA W ŁAPACH, UL. BOHATERÓW WESTERPLATTE, 18-100, ŁAPY,22.87657971,52.98984475, 57.833333333333336, 996.8416666666667, 19.708333333333332,2.449999999999999,2.033333333333333, 2026-07-20 20:06:22
SZKOŁA PODSTAWOWA W WĘGRACH, UL. SZKOLNA, 55-020, WĘGRY,17.0374566,50.92746209, 57.10833333333333, 998.5833333333334, 20.125,0.916666666666666,0.8250000000000001, 2026-07-20 20:06:22
PUBLICZNA SZKOŁA PODSTAWOWA IM. MIKOŁAJA KOPERNIKA W BIENIĘDZICACH, , 26-625, BIENIĘDZICE,20.92852467,51.41165831, 63.2, 992.71, 19.6,2.489999999999999,2.04, 2026-07-20 20:06:22
SAMORZĄDOWA SZKOŁA PODSTAWOWA IM. WOJSKA POLSKIEGO W WODZISŁAWIU, UL. SZKOLNA, 28-330, WODZISŁAW,20.18925053,50.51810713, 33.81666666666667, 985.3333333333334, 24.791666666666668,3.225,2.9, 2026-07-20 20:06:22
TECHNIKUM W JASIEŃCU, UL. CZERSKA, 05-600, JASIENIEC,20.94031755,51.82104731, 66.45833333333333, 998.3249999999999, 19.0,1.758333333333333,1.425, 2026-07-20 20:06:22
LICEUM OGÓLNOKSZTAŁCĄCE W ZESPOLE SZKÓŁ DRZEWNYCH I LEŚNYCH IM. JANA KOCHANOWSKIEGO W GARBATCE - LETNISKU, UL. HANKI LEWANDOWICZ, 26-930, GARBATKA-LETNISKO,21.62967267,51.49346798, 57.21666666666667, 995.875, 19.041666666666668,1.8916666666666664,1.508333333333333, 2026-07-20 20:06:22
PUBLICZNA SZKOŁA PODSTAWOWA IM. JANA OLRYCHA SZANIECKIEGO W SZAŃCU, , 28-100, SZANIEC,20.69198509758868,50.51627384074623, 38.891666666666666, 984.2833333333333, 22.724999999999998,3.25,2.983333333333333, 2026-07-20 20:06:22
SZKOŁA PODSTAWOWA W ZBOROWIE, UL. ZWIERZYNIEC, 28-131, ZBORÓW,20.711351,50.51339044, 34.4, 990.4666666666667, 25.0,3.041666666666666,2.533333333333333, 2026-07-20 20:06:22
PUBLICZNA SZKOŁA PODSTAWOWA IM. POR. JÓZEFA MĄCZKI W ZALESZANACH, UL. SANDOMIERSKA, 37-415, ZALESZANY,21.88785883,50.64803753, 33.78333333333333, 995.975, 25.141666666666666,2.891666666666667,2.383333333333333, 2026-07-20 20:06:22
SZKOŁA PODSTAWOWA W SOLCU-ZDROJU, UL. 1 MAJA, 28-131, SOLEC-ZDRÓJ,20.8893586,50.37082674, 33.233333333333334, 993.7833333333333, 24.591666666666665,3.074999999999999,2.6999999999999997, 2026-07-20 20:06:22
I LICEUM OGÓLNOKSZTAŁCĄCE W NOWEJ SARZYNIE, UL. KOMISJI EDUKACJI NARODOWEJ, 37-310, NOWA SARZYNA,22.34167945,50.31921557, 41.449999999999996, 995.8249999999999, 23.75,3.65,3.408333333333333, 2026-07-20 20:06:22
SZKOŁA PODSTAWOWA W SZRENIAWIE, , 32-075, SZRENIAWA,19.8690283,50.3768057, 46.458333333333336, 979.5916666666667, 21.233333333333334,3.275,2.633333333333333, 2026-07-20 20:06:22
SZKOŁA PODSTAWOWA IM. WANDY RUTKIEWICZ W JANOWICACH WIELKICH, UL. PARTYZANTÓW, 58-520, JANOWICE WIELKIE,15.925671,50.88188, 75.90833333333333, 974.3833333333333, 16.925,12.066666666666668,10.508333333333333, 2026-07-20 20:06:22
SZKOŁA PODSTAWOWA W PTASZKOWIE, , 58-400, PTASZKÓW,16.0415642,50.7927672, 66.71666666666667, 963.6833333333334, 17.241666666666667,3.083333333333333,2.608333333333333, 2026-07-20 20:06:22
SZKOŁA PODSTAWOWA IM. ŚW. WOJCIECHA WE WŁODOWICACH, , 57-400, WŁODOWICE,16.4776033,50.575772, 47.23333333333333, 972.7166666666667, 20.416666666666668,1.9083333333333328,1.583333333333333, 2026-07-20 20:06:22
PUBLICZNA SZKOŁA PODSTAWOWA W LEWINIE KŁODZKIM, UL. KOŚCIELNA, 57-343, LEWIN KŁODZKI,16.2909777,50.4056168, 49.21818181818182, 963.0090909090909, 19.554545454545455,1.045454545454545,0.936363636363636, 2026-07-20 20:06:22
SZKOŁA PODSTAWOWA NR 3 IM. JANA PAWŁA II W SYCOWIE, UL. KOŚCIELNA, 56-500, SYCÓW,17.72017,51.3071, 76.90833333333333, 994.2583333333333, 17.075,1.425,1.216666666666666, 2026-07-20 20:06:22
SZKOŁA PODSTAWOWA IM. BOLESŁAWA CHROBREGO W ŻMIGRODZIE, UL. HENRYKA SIENKIEWICZA, 55-140, ŻMIGRÓD,16.9084728,51.4700924, 74.05833333333334, 1003.775, 18.608333333333334,1.458333333333333,1.258333333333333, 2026-07-20 20:06:22
SPOŁECZNA SZKOŁA PODSTAWOWA W ŚWIDNICY, UL. ADAMA MICKIEWICZA, 58-100, ŚWIDNICA,16.677532,51.0740481, 60.43636363636363, 991.6818181818181, 18.845454545454547,1.5,1.29090909090909, 2026-07-20 20:06:22
SZKOŁA PODSTAWOWA W KRZESZOWIE, UL. BETLEJEMSKA, 58-400, KRZESZÓW,16.0646514,50.7333391, 59.53333333333333, 961.3333333333334, 18.191666666666666,4.899999999999999,4.2, 2026-07-20 20:06:22
SZKOŁA PODSTAWOWA W MOKRZESZOWIE, , 58-160, MOKRZESZÓW,16.371249,50.8485349, 64.29166666666667, 981.1500000000001, 18.541666666666668,1.491666666666666,1.266666666666666, 2026-07-20 20:06:22
SZKOŁA PODSTAWOWA IM. ADAMA MICKIEWICZA W PĘGOWIE, UL. GŁÓWNA, 55-120, PĘGÓW,16.9325607,51.2463277, 64.85000000000001, 999.7583333333333, 18.958333333333332,1.358333333333333,1.15, 2026-07-20 20:06:22
TECHNIKUM W BOLKOWIE, UL. NIEPODLEGŁOŚCI, 59-420, BOLKÓW,16.1055099,50.92060569, 68.01666666666667, 977.1416666666668, 17.8,1.4,1.175, 2026-07-20 20:06:22
SZKOŁA PODSTAWOWA NR 4 IM.PROF. ROMANA PODOSKIEGO W OLEŚNICY, UL. IGNACEGO PADEREWSKIEGO, 56-400, OLEŚNICA,17.3883791,51.2047183, 61.26666666666667, 996.5666666666666, 19.408333333333335,1.583333333333333,1.466666666666666, 2026-07-20 20:06:22
SZKOŁA PODSTAWOWA W PÓŁWIESKU MAŁYM, , 87-337, PÓŁWIESK MAŁY,19.2209039,53.1414488, 57.6, 997.2083333333334, 20.941666666666666,1.266666666666666,1.083333333333333, 2026-07-20 20:06:22
TECHNIKUM NR 9 W TORUNIU, UL. STEFANA BATOREGO, 87-100, TORUŃ,18.6208871,53.0272793, 69.53333333333333, 1005.8249999999999, 19.208333333333332,1.3083333333333331,1.099999999999999, 2026-07-20 20:06:22
SZKOŁA PODSTAWOWA W RUDNIE W ZESPOLE KSZTAŁCENIA I WYCHOWANIA W RUDNIE, UL. SZKOLNA, 83-121, RUDNO,18.762284,53.934177, 76.27499999999999, 1001.4583333333334, 18.616666666666667,1.966666666666666,1.775, 2026-07-20 20:06:22
SZKOŁA PODSTAWOWA W RACŁAWICZKACH, UL. SZKOLNA, 47-370, RACŁAWICZKI,17.7792949,50.4791824, 43.93333333333334, 992.475, 21.78333333333333,2.375,2.091666666666667, 2026-07-20 20:06:22
SZKOŁA PODSTAWOWA W KOMORNIKACH, UL. SZKOLNA, 47-364, KOMORNIKI,17.900609,50.433498, 39.108333333333334, 993.2833333333333, 22.391666666666666,1.4333333333333331,1.216666666666666, 2026-07-20 20:06:22
TECHNIKUM NR 3 W GLIWICACH, UL. WARSZAWSKA, 44-100, GLIWICE,18.6782411,50.3080285, 44.760000000000005, 985.96, 22.57,2.55,2.0, 2026-07-20 20:06:22
SZKOŁA PODSTAWOWA NR 20 IM.II MORSKIEGO PUŁKU STRZELCÓW W GDYNI, UL. STARODWORCOWA, 81-575, GDYNIA,18.495846,54.464583, 85.70833333333333, 995.1, 16.0,1.508333333333333,1.3, 2026-07-20 20:06:22
SZKOŁA PODSTAWOWA IM. PRZYJACIÓŁ ZIEMI W KŁODAWIE, , 89-632, KŁODAWA,17.6377441,53.745006, 83.41666666666667, 991.375, 16.458333333333332,5.141666666666667,4.633333333333334, 2026-07-20 20:06:22
SZKOŁA PODSTAWOWA NR 2 IM. STANISŁAWA STASZICA W OSTROŁĘCE, UL. PAPIERNICZA, 07-410, OSTROŁĘKA,21.5825833,53.0888402, 69.45833333333333, 1001.2083333333334, 18.116666666666667,1.291666666666666,1.166666666666666, 2026-07-20 20:06:22
SZKOŁA PODSTAWOWA NR 67 IM. WŁADYSŁAWA ŁOKIETKA W KRAKOWIE, UL. KACZORÓWKA, 31-264, KRAKÓW-KROWODRZA,19.9056364,50.1069438, 36.46666666666667, 986.8166666666666, 24.400000000000002,3.158333333333333,2.583333333333333, 2026-07-20 20:06:22
IV LICEUM OGÓLNOKSZTAŁCĄCE IM. HENRYKA SIENKIEWICZA W CZĘSTOCHOWIE, AL. ALEJA NAJŚWIĘTSZEJ MARYI PANNY, 42-217, CZĘSTOCHOWA,19.1090584,50.8125266, 50.09166666666667, 983.75, 20.7,2.341666666666667,1.925, 2026-07-20 20:06:22
PUBLICZNA KATOLICKA SZKOŁA PODSTAWOWA IM. ŚW. JOANNY BERETTY MOLLI W KRAKOWIE, UL. STELMACHÓW, 31-349, KRAKÓW-KROWODRZA,19.9043827,50.0953292, 35.84166666666667, 973.7166666666667, 24.833333333333332,2.458333333333333,2.166666666666666, 2026-07-20 20:06:22
SZKOŁA PODSTAWOWA NR 33 IM. M. KOWNACKIEJ W CZĘSTOCHOWIE, UL. SEWERYNA GOSZCZYŃSKIEGO, 42-217, CZĘSTOCHOWA,19.1097087,50.7990464, 53.0, 984.7666666666668, 21.091666666666665,2.65,2.125, 2026-07-20 20:06:22
SZKOŁA PODSTAWOWA IM.JANA KOCHANOWSKIEGO W CZARNYM LESIE, UL. SZKOLNA, 42-233, CZARNY LAS,19.0845102,50.8928973, 44.1, 987.1666666666666, 21.40833333333333,1.916666666666666,1.7000000000000002, 2026-07-20 20:06:22
SZKOŁA PODSTAWOWA NR 49 IM. J.KUSOCIŃSKIEGO W CZĘSTOCHOWIE, UL. JESIENNA, 42-208, CZĘSTOCHOWA,19.146175,50.7703289, 51.800000000000004, 983.3166666666666, 20.55,1.8,1.25, 2026-07-20 20:06:22
SZKOŁA PODSTAWOWA IM. GEN.STANISŁAWA MACZKA W BOGUCHWALE, UL. TEODORA LUBOMIRSKIEGO, 36-040, BOGUCHWAŁA,21.9468603,49.9849727, 26.616666666666664, 988.7416666666667, 28.675,2.808333333333333,2.525, 2026-07-20 20:06:22
SZKOŁA PODSTAWOWA IM. PROF. JANA SAJDAKA W BURZYNIE, , 33-170, BURZYN,21.0614367,49.8737482, 33.99166666666667, 986.5666666666666, 26.09166666666667,2.558333333333333,2.283333333333333, 2026-07-20 20:06:22
SZKOŁA PODSTAWOWA IM. KORNELA MAKUSZYŃSKIEGO W DĄBRÓWCE TUCHOWSKIEJ, , 33-170, DĄBRÓWKA TUCHOWSKA,21.0449769,49.8733226, 42.75, 989.7416666666667, 22.84166666666667,2.666666666666666,2.408333333333333, 2026-07-20 20:06:22
PUBLICZNA SZKOŁA PODSTAWOWA W BĄKOWEJ, , 27-310, BĄKOWA,21.462254,51.209968, 48.00833333333333, 992.6583333333333, 21.025000000000002,2.391666666666666,1.9, 2026-07-20 20:06:22
LICEUM OGÓLNOKSZTAŁCĄCE W PRZASNYSZU, UL. MAZOWIECKA, 06-300, PRZASNYSZ,20.894694468872185,53.02520296443298, 63.525, 997.4416666666666, 18.533333333333335,1.325,1.15, 2026-07-20 20:06:22
BRANŻOWA SZKOŁA I STOPNIA W PRZASNYSZU, UL. MAZOWIECKA, 06-300, PRZASNYSZ,20.870424368871877,53.01786487865621, 64.18333333333334, 997.0416666666666, 18.766666666666666,0.8250000000000001,0.75, 2026-07-20 20:06:22
TECHNIKUM W ZESPOLE SZKÓŁ POWIATOWYCH IM. MJRA HENRYKA SUCHARSKIEGO W PRZASNYSZU, UL. MAZOWIECKA, 06-300, PRZASNYSZ,20.87980154232724,53.01566507941117, 58.96666666666667, 997.1999999999999, 20.349999999999998,0.95,0.8833333333333331, 2026-07-20 20:06:22
SZKOŁA PODSTAWOWA IM. FELIKSA NOWOWIEJSKIEGO W WYDMINACH, UL. GRUNWALDZKA, 11-510, WYDMINY,22.034963,53.9804304, 67.3, 992.8416666666667, 18.775000000000002,2.3,2.058333333333333, 2026-07-20 20:06:22
TECHIKUM IM. JANA PAWŁA II W ŻARNOWCU, UL. KRAKOWSKA, 42-439, ŻARNOWIEC,19.8627098,50.4785469, 37.93333333333334, 980.4916666666667, 23.358333333333334,2.633333333333333,2.166666666666666, 2026-07-20 20:06:22
SZKOŁA PODSTAWOWA NR 3 IM. ŚW. MAKSYMILIANA MARII KOLBEGO W CHMIELNIKU, , 36-016, CHMIELNIK,22.153376,49.967673, 35.625, 985.125, 24.941666666666666,3.4,2.941666666666666, 2026-07-20 20:06:22
SZKOŁA PODSTAWOWA Z ODDZIAŁAMI INTEGRACYJNYMI IM. JANA PAWŁA II W PANIÓWKACH, UL. ZWYCIĘSTWA, 44-177, PANIÓWKI,18.7807475,50.2326931, 41.6, 989.4083333333333, 24.875,1.625,1.083333333333333, 2026-07-20 20:06:22
SZKOŁA PODSTAWOWA IM. WITOLDA BUDRYKA W CHUDOWIE, UL. SZKOLNA, 44-177, CHUDÓW,18.7790318,50.2106591, 38.9, 985.6083333333335, 24.84166666666667,2.05,1.6583333333333332, 2026-07-20 20:06:22
SZKOŁA PODSTAWOWA NR 12 IM. JÓZEFA JANIKA W MIKOŁOWIE, UL. SZKOLNA, 43-196, MIKOŁÓW,18.79996,50.1842309, 41.516666666666666, 982.0666666666666, 22.90833333333333,1.591666666666666,1.058333333333333, 2026-07-20 20:06:22
SZKOŁA PODSTAWOWA IM. ORŁA BIAŁEGO W WYKOWIE, , 18-500, WYKOWO,21.919300168509835,53.4743330561782, 52.64166666666667, 998.9250000000001, 21.241666666666667,0.8250000000000001,0.6666666666666661, 2026-07-20 20:06:22
SZKOŁA PODSTAWOWA IM. ŚW. JADWIGI KRÓLOWEJ W KAMIENIU PRUSINIE, , 36-053, KAMIEŃ,22.13142067,50.34420441, 37.775, 989.5583333333334, 23.441666666666666,2.758333333333333,2.333333333333333, 2026-07-20 20:06:22
SZKOŁA PODSTAWOWA W SKÓRCU, UL. SIEDLECKA, 08-114, SKÓRZEC,22.13605362,52.10761735, 55.09166666666667, 992.6083333333335, 19.400000000000002,1.6583333333333332,1.375, 2026-07-20 20:06:22
SZKOŁA PODSTAWOWA NR 3 IM. MARII KONOPNICKIEJ W ŁOCHOWIE, UL. 1 MAJA, 07-130, ŁOCHÓW,21.68182,52.5307, 60.71666666666667, 1002.3083333333333, 19.375,0.225,0.133333333333333, 2026-07-20 20:06:22
SZKOŁA PODSTAWOWA IM.ŻOŁNIERZY II ARMII WOJSKA POLSKIEGO W ZESPOLE OŚWIATOWO-WYCHOWAWCZYM W BIAŁKACH , UL. DIAMENTOWA, 08-110, BIAŁKI,22.292238,52.131471, 55.99166666666667, 994.4666666666667, 19.308333333333334,1.591666666666666,1.533333333333333, 2026-07-20 20:06:22
SZKOŁA PODSTAWOWA W ZESPOLE OŚWIATOWYM IM. JANA PAWŁA II W STOKU LACKIM , UL. SIEDLECKA, 08-110, STOK LACKI,22.35006721,52.16135264, 53.1, 995.8, 18.9,1.6,1.3, 2026-07-20 20:06:22
SZKOŁA PODSTAWOWA IM. 18 DYWIZJI PIECHOTY ZIEMI ŁOMŻYŃSKIEJ W ANDRZEJEWIE, UL. WARSZAWSKA, 07-305, ANDRZEJEWO,22.19398993,52.82792464, 57.708333333333336, 996.8333333333334, 20.0,0.8416666666666661,0.8416666666666661, 2026-07-20 20:06:22
TECHNIKUM NR 8 W RZESZOWIE, UL. WINCENTEGO POLA, 35-021, RZESZÓW,21.98647117,50.02719923, 36.108333333333334, 992.6750000000001, 25.075,2.733333333333333,2.508333333333333, 2026-07-20 20:06:22
SZKOŁA PODSTAWOWA IM.JANA KOCHANOWSKIEGO W ŚWIDNIKU, , 34-606, ŚWIDNIK,20.5329659,49.5933178, 41.25833333333333, 971.4083333333333, 22.349999999999998,3.358333333333333,3.074999999999999, 2026-07-20 20:06:22
SZKOŁA PODSTAWOWA W ULATOWIE-ADAMACH, , 06-316, ULATOWO-ADAMY,20.9328136,53.1650883, 61.18333333333334, 996.0166666666668, 19.233333333333334,1.9083333333333328,1.675, 2026-07-20 20:06:22
SZKOŁA PODSTAWOWA IM. ADAMA MICKIEWICZA W JAKSICACH, , 32-200, JAKSICE,20.010296,50.322967, 42.583333333333336, 982.975, 22.083333333333332,4.083333333333333,3.533333333333333, 2026-07-20 20:06:22
SZKOŁA PODSTAWOWA IM. ŚW. KRÓLOWEJ JADWIGI W HERMANOWEJ, , 36-020, HERMANOWA,22.0188654,49.9417235, 38.36666666666667, 984.3666666666667, 23.058333333333334,2.725,2.324999999999999, 2026-07-20 20:06:22
PUBLICZNA SZKOŁA PODSTAWOWA IM. ŚW. KINGI W ŁĄKCIE DOLNEJ , , 32-733, ŁĄKTA DOLNA,20.399763,49.8388069, 34.13333333333333, 984.4916666666667, 25.400000000000002,2.391666666666666,2.075, 2026-07-20 20:06:22
SZKOŁA PODSTAWOWA IM. S. CZESŁAWY LOREK W BICZYCACH DOLNYCH, , 33-395, BICZYCE DOLNE,20.6443899,49.6312294, 44.24166666666667, 982.2666666666668, 23.316666666666666,3.133333333333333,2.758333333333333, 2026-07-20 20:06:22
OGÓLNOKSZTAŁCĄCE LICEUM AKADEMICKIE JEZUITÓW W NOWYM SĄCZU, UL. PIOTRA SKARGI, 33-300, NOWY SĄCZ,20.69132733,49.62662433, 44.375, 982.3499999999999, 22.775000000000002,3.891666666666667,3.449999999999999, 2026-07-20 20:06:22
TECHNIKUM NR 4 W NOWYM SĄCZU, UL. ŚW. DUCHA, 33-300, NOWY SĄCZ,20.69270978,49.62622093, 42.475, 982.1583333333333, 23.708333333333332,3.641666666666667,3.199999999999999, 2026-07-20 20:06:22
SZKOŁA PODSTAWOWA IM. JANA PAWŁA II - PAPIEŻA POLAKA W STARYM LUBOTYNIU, , 07-303, STARY LUBOTYŃ,21.9359049,52.932735, 59.333333333333336, 997.3249999999999, 19.541666666666668,1.125,0.958333333333333, 2026-07-20 20:06:22
SZKOŁA PODSTAWOWA NR 6 Z ODDZIAŁAMI INTEGRACYJNYMI IM. JANA PAWŁA II W ŁAZISKACH GÓRNYCH, UL. WYRSKA, 43-173, ŁAZISKA GÓRNE,18.8703811,50.1362116, 44.94166666666666, 980.475, 22.608333333333334,2.633333333333333,2.141666666666666, 2026-07-20 20:06:22
TECHNIKUM DLA MŁODZIEŻY TEB EDUKACJA W NOWYM SĄCZU, UL. RYNEK, 33-300, NOWY SĄCZ,20.6900064,49.62567283, 40.891666666666666, 981.0749999999999, 24.516666666666666,2.9666666666666672,2.725, 2026-07-20 20:06:22
BRANŻOWA SZKOŁA I STOPNIA NR 2 W NOWYM SĄCZU, UL. KRÓLOWEJ JADWIGI, 33-300, NOWY SĄCZ,20.707689,49.613478, 44.46666666666667, 981.1583333333333, 22.791666666666668,3.583333333333333,3.283333333333333, 2026-07-20 20:06:22
SZKOŁA PODSTAWOWA W STRZEGOCINIE, , 06-150, STRZEGOCIN,20.84085873,52.68602636, 71.39999999999999, 995.2333333333332, 17.766666666666666,1.616666666666666,1.4, 2026-07-20 20:06:22
SZKOŁA PODSTAWOWA NR 15 IM. BOHATERÓW SĄDECCZYZNY W NOWYM SĄCZU, UL. 29 LISTOPADA, 33-300, NOWY SĄCZ,20.7136659,49.6028522, 33.574999999999996, 978.2333333333332, 25.724999999999998,4.375,4.016666666666667, 2026-07-20 20:06:22
SZKOŁA PODSTAWOWA NR 1 W WOLBROMIU, UL. MARIACKA, 32-340, WOLBROM,19.7584,50.37939, 39.84166666666667, 971.9583333333334, 24.458333333333332,2.3666666666666663,1.966666666666666, 2026-07-20 20:06:22
SZKOŁA PODSTAWOWA W SZCZEPANKOWIE, , 18-411, SZCZEPANKOWO,21.94948922362341,53.12016423529404, 63.029999999999994, 997.7, 18.86,1.17,0.97, 2026-07-20 20:06:22
SZKOŁA PODSTAWOWA NR 21 IM. KS. STANISŁAWA KONARSKIEGO W CZĘSTOCHOWIE, UL. SABINOWSKA, 42-202, CZĘSTOCHOWA,19.161529,50.8367999, 48.041666666666664, 985.2583333333333, 21.575,2.516666666666666,2.016666666666666, 2026-07-20 20:06:22
SZKOŁA PODSTAWOWA IM. K. PUŁASKIGO W RĘDZINACH OSIEDLU, UL. DZIAŁKOWICZÓW, 42-242, RĘDZINY,19.2114785,50.857508, 46.79, 982.64, 21.4,2.55,2.02, 2026-07-20 20:06:22
SZKOŁA PODSTAWOWA IM.TADEUSZA KOŚCIUSZKI W WIERZCHOWISKU, UL. DŁUGA, 42-233, WIERZCHOWISKO,19.1315281,50.87314, 45.81818181818182, 986.1272727272727, 21.563636363636363,2.136363636363636,1.718181818181818, 2026-07-20 20:06:22
SZKOŁA PODSTAWOWA NR 16 W GLIWICACH, UL. JANA KILIŃSKIEGO, 44-122, GLIWICE,18.6691473,50.2768393, 42.574999999999996, 1097.8, 23.508333333333336,48.575,22.40833333333333, 2026-07-20 20:06:22
NIEPUBLICZNA SZKOŁA PODSTAWOWA W ZDROCHCU, , 33-273, ZDROCHEC,20.8284982,50.1390234, 31.483333333333334, 992.6166666666667, 27.016666666666666,1.941666666666666,1.941666666666666, 2026-07-20 20:06:22
SZKOŁA PODSTAWOWA W PIECNIKU, , 78-650, PIECNIK,16.2532907,53.3424311, 90.64999999999999, 995.2833333333333, 16.566666666666666,1.25,1.166666666666666, 2026-07-20 20:06:22
SZKOŁA PODSTAWOWA IM. JANA PAWŁA II W BIELICACH, UL. JANA PAWŁA II, 74-202, BIELICE,14.7260542,53.2035917, 87.44545454545454, 1010.2545454545453, 16.272727272727273,1.9,1.59090909090909, 2026-07-20 20:06:22
TECHNIKUM NR 5 W PILE, UL. GEN. SIKORSKIEGO, 64-920, PIŁA,16.7382266,53.1509671, 81.60833333333333, 1003.4916666666667, 17.066666666666666,1.058333333333333,0.916666666666666, 2026-07-20 20:06:22
TECHNIKUM W BIELAWIE - ZESPÓŁ SZKÓŁ I PLACÓWEK KSZTAŁCENIA ZAWODOWEGO W BIELAWIE, UL. STEFANA ŻEROMSKIEGO, 58-260, BIELAWA,16.623803,50.691456, 54.69166666666666, 980.6583333333333, 20.125,1.366666666666666,1.1833333333333331, 2026-07-20 20:06:22
TECHNIKUM NR 1 W BOLESŁAWCU, UL. GÓRNE MŁYNY, 59-700, BOLESŁAWIEC,15.558936,51.263908, 69.75, 997.375, 18.900000000000002,2.7416666666666663,2.408333333333333, 2026-07-20 20:06:22
TECHNIKUM NR 2 W BOLESŁAWCU, AL. TYSIĄCLECIA, 59-700, BOLESŁAWIEC,15.591082,51.261139, 63.925000000000004, 989.9916666666667, 18.683333333333334,1.533333333333333,1.349999999999999, 2026-07-20 20:06:22
SZKOŁA PODSTAWOWA IM.MARII KONOPNICKIEJ W KOSTOMŁOTACH, UL. WROCŁAWSKA, 55-311, KOSTOMŁOTY,16.6157528,51.0436096, 58.93333333333333, 995.6166666666667, 20.158333333333335,1.425,1.208333333333333, 2026-07-20 20:06:22
TECHNIKUM W POWIATOWYM ZESPOLE SZKÓŁ W CHOJNOWIE, UL. WINCENTEGO WITOSA, 59-225, CHOJNÓW,15.935802,51.272209, 71.51666666666667, 998.4333333333334, 18.866666666666667,1.916666666666666,1.633333333333333, 2026-07-20 20:06:22
SZKOŁA PODSTAWOWA NR 2 IM. STANISŁAWA MONIUSZKI W ORZESZU, UL. BUKOWINA, 43-180, ORZESZE,18.779395,50.14921, 49.791666666666664, 978.8000000000001, 21.325,2.4,1.9083333333333328, 2026-07-20 20:06:22
SZKOŁA PODSTAWOWA IM. A.SASIMOWSKIEGO W BOROWIU, UL. ALEKSANDRA SASIMOWSKIEGO, 08-412, BOROWIE,21.7676799,51.9488003, 55.50833333333333, 995.8583333333332, 19.058333333333334,1.625,1.3916666666666662, 2026-07-20 20:06:22
SZKOŁA PODSTAWOWA NR 3 IM.KPT.STANISŁAWA BETLEJA W KŁODZKU, UL. JANA PAWŁA II, 57-300, KŁODZKO,16.646804,50.437599, 44.98333333333333, 978.2333333333332, 21.083333333333332,1.291666666666666,1.133333333333333, 2026-07-20 20:06:22
